<?xml version="1.0" encoding="UTF-8"?>
<PlaceSearchResponse>
 <status>OK</status>
 <result>
  <geometry>
   <location>
    <lat>42.6971340</lat>
    <lng>23.3221230</lng>
   </location>
  </geometry>
  <reference>CmRSAAAAOKx4LSPit7NiKAfqtb70sDahxpIcpueUTaMfZvA4Zwhj1lnCcRwBO2GH3U9IJ2YoKN7X8K0rNYpBScn-qEZ1Nqg8rIKif2txVhdlYKjykKE1B5sPLt_foPjxkAw-tDdKEhDJuxllTg-VSGJFKULyJv0AGhTTd5-QqPooTFGtG0Sv39Hn5aUdqg</reference>
  <id>7838c83ccdd84a2efd1db3bac0bfa9c5bcb46938</id>
  <place_id>ChIJ0b_NyW6FqkARJXGz7W-es9k</place_id>
 </result>
 <result>
  <geometry>
   <location>
    <lat>42.6990176</lat>
    <lng>23.3324375</lng>
   </location>
  </geometry>
  <reference>CmRRAAAAtNAuwjE_nkhi0Np3ntmkLNes0AqIuqnmGgdor64afxhMhe61cgt6RrzQr20pbsUCsoP51LABse-uc4yyjNQtMEAMdeaugxrtOSwG3YxOBztOpWHq1WvQg5bLhhsImQVHEhCccVZT0Hl1BvllDqgwe3NwGhQ6ElN6aBmsIYVMd_ZowRZs9UippA</reference>
  <id>8334517eca5f56102e8f1936e0ad5082fe5a1ca7</id>
  <place_id>ChIJI60nA5tiqkAR7s9gVeopqXg</place_id>
 </result>
 <result>
  <geometry>
   <location>
    <lat>42.6232940</lat>
    <lng>23.3323960</lng>
   </location>
  </geometry>
  <reference>CmRSAAAA6KBbr0vE4rX9mq9ReaIKbJL80FldUBmzQlE2A1pPA3joe_m_n7AjHQQGmRha8r_hrF7xrGXE74ZMn5ygalwz40AwLUlp26xx3TWlGb18t2H409shRRNPK2uL3L2nCuB6EhAUAJZ2_VULa6rv2X7H1kNTGhQ9VotccOEjwmxLdpy09tTu_X3hoA</reference>
  <id>0891c41c41710a5e470a1989308d0c90d5048b8a</id>
  <place_id>ChIJr3MAVWiBqkARODnTT6TkH5w</place_id>
 </result>
 <result>
  <geometry>
   <location>
    <lat>42.7068610</lat>
    <lng>23.3217170</lng>
   </location>
  </geometry>
  <reference>CmRRAAAAsLHc_zKOylOo1a_WPpjP0_ZM9lLg05rWZ6ucVaHZLM-ZFRCcC_8-NoVT7nkzylfQSqhB9faDcm8WEOuJARckIr3NjEtFyGCZOakPXrOWU96nbSrQtZ6DRipKPlP97ueoEhD8oqBRJmwmBIg3tLf3ixShGhQgQrMT68rzytLBiPeLm927Q0tyEQ</reference>
  <id>0b10c1ae176f751e409fc20b49ccc755f1054724</id>
  <place_id>ChIJdRaAIF6FqkAR3CvTSVWxC0A</place_id>
 </result>
 <result>
  <geometry>
   <location>
    <lat>42.6974540</lat>
    <lng>23.3283150</lng>
   </location>
  </geometry>
  <reference>CmRSAAAAG3rvFrtJHhWHW0oa7wuEhO_04vNIDi2UxidCUgoRXcPLDhNQS7oM46cQUXWD1r7_DhABniuINdjaSwg6OnLpLhs4ffJ3Mcb3gSxsWDa_EZciPUZuYKpaD1hR1QiCm0OHEhBXr7SZqGXbrZEKHO2hktuIGhS-BN4CQrKJgSi86lafaovDjdPYhg</reference>
  <id>c8aab9d774b95b857f846c7d02e980f9618083e6</id>
  <place_id>ChIJY3JNPFyEqkAR82fNuUtNW8M</place_id>
 </result>
 <result>
  <geometry>
   <location>
    <lat>42.6843099</lat>
    <lng>23.2971689</lng>
   </location>
  </geometry>
  <reference>CmRSAAAABs1vIAHXPmjLnIgs6h5LE3VHT2s6puqX5I-lNJBWXjCJbSymbJ6ThY5OymUq1Xq1nPyIX_1y5VVOVIF2YClaZ2j1OJs-sN_UToxPMJVGCzOaPQHpSooU3YSJQIfr4hiEEhDOQcxx4RAxzvYuqUwrs-8XGhQRvTBDsTX-b-CUycF72qPV1OQrlQ</reference>
  <id>536453643479cbc2d2dedb5918c243b6d39d4bd8</id>
  <place_id>ChIJ54JPZCOFqkARgxb5bfTZFYM</place_id>
 </result>
 <result>
  <geometry>
   <location>
    <lat>42.6566861</lat>
    <lng>23.3531262</lng>
   </location>
  </geometry>
  <reference>CmRSAAAAmq2mbHXVsdHMGOAlcCuzVicKJGJfrZI6oimBZzKeDPE-dnuXRT3Fx2KkVuOxkuuldwDRVniz78OdCqAwQ7roGsLhQ4iB_IK71pvDK0_eFp5I_gykmSyqT_J_wQtjyzL2EhB1DcdNVJZuDJ-6XNXGHwbCGhQm6hBrLIZV4x-RWJkZBXb4m_Jv8A</reference>
  <id>ce3d8de1e5c69184dff153cbe5756059e749b86d</id>
  <place_id>ChIJTTXHfy-EqkARfqKv3OiLaaQ</place_id>
 </result>
 <result>
  <geometry>
   <location>
    <lat>42.6590780</lat>
    <lng>23.3829820</lng>
   </location>
  </geometry>
  <reference>CmRRAAAA_LOoHni144SLc5vSs5fnLpXIErH2Ge4TfLR5V5W-gqFsPzJktcD4ESv1OBTOj597R4Ytzi248UpiLeujn_jvKZEOqjcElwtlX8Bb8sVH-IqRHX8qvlJ4qFL8lGNxDrayEhAHQz_sQ7vqzhwUZs8FnQU_GhRDqIsnzTY2EtqZ5K_KQ6xZM83niQ</reference>
  <id>7d4825919d5e300a83055c2f1aee1b27c3540b1d</id>
  <place_id>ChIJVVVVVYqGqkARfkZiBZdHbGc</place_id>
 </result>
 <result>
  <geometry>
   <location>
    <lat>42.6741550</lat>
    <lng>23.3484260</lng>
   </location>
  </geometry>
  <reference>CmRRAAAAxFUaQ2OrI91uHz7d3TSln2f6rm2YIZ0MOrR0qzruqE1y4BavAtI7jWrTwkVcmC6uDjT6GeB_FXqPhed8cFjPKcZ0LclzD_STTAb3XCy1t30S0W1Bf6rPqLcV-Iutjw-tEhCjFlxXTft25zvGloWoCVuLGhQocnPVfg76dZ40ZdZGNludpx6iug</reference>
  <id>0de8b71a0e958deb2f1d1004cfc06829b8e64a07</id>
  <place_id>ChIJm3P5L7aFqkARC4nRTuFhJT0</place_id>
 </result>
 <result>
  <geometry>
   <location>
    <lat>42.6937270</lat>
    <lng>23.3374050</lng>
   </location>
  </geometry>
  <reference>CmRRAAAAFSNVRO9zDdDj_RyaVQJDc05InTyW1QTS4lbr1Y0LZWTeqUto7bQj_lZ4iEtwKJLTOrnEe44uDjWTlbO12hwgogKRm_YPZvXmwAzylKzDayPhnfsPoIsFV1PR6BI4iE_1EhDUkJpF6PZruIi_nKWblhSHGhQpHR_cvEQJQ7g9-mGMaxzsuBaM_g</reference>
  <id>3897f7dd6782822241213826c52db1ed9d421084</id>
  <place_id>ChIJvQLFFXaFqkARPjb8eGVqBmA</place_id>
 </result>
 <result>
  <geometry>
   <location>
    <lat>42.2641760</lat>
    <lng>23.1166500</lng>
   </location>
  </geometry>
  <reference>CmRRAAAAZzmYTsJ9NMxzhGppMLrMfGfnIz5_87sjgSxvuchovrrMF4yXEhd98qR_hUYRDlNBFtQTnqFPZnz_RPRyXKwRe4hca4XtHT_Rc9IcvxixoOkDIpPz7TkaigVC4Xsf2EkXEhD4z3KoUkQmKE1481g9TDO5GhQ02k9DCuDOZY5yX9MHbKKJz1xeuw</reference>
  <id>5b11378d4446563fdd8288c63c8fd9b365b00113</id>
  <place_id>ChIJYULyixPpqhQRUDiR23yXjzI</place_id>
 </result>
 <result>
  <geometry>
   <location>
    <lat>42.6295605</lat>
    <lng>23.3101827</lng>
   </location>
  </geometry>
  <reference>CmRSAAAAfJBEQcp_BNdCZotuU1SzqwO67jid_qBJHD4YSw24Jl45xxYYsOdrLqxZkImZNCrC1DF_jHZ6q18uk6dodttuWWm-fH3BFpizp4BOijDXnAyAJasgRj9ZI-bkl9QoD-OGEhAQlX-87gPTVFbhNZock-yNGhSXDdbbZMHepRvQRmWA2x3jLcpu-g</reference>
  <id>cb1080b7a62cd79996fa4afe69a271229b38a0ef</id>
  <place_id>ChIJpZj29qKEqkARkasvKdKCsfk</place_id>
 </result>
 <result>
  <geometry>
   <location>
    <lat>42.6535200</lat>
    <lng>23.3464700</lng>
   </location>
  </geometry>
  <reference>CmRSAAAAeIk3Vabe2ZITFqI7UFETTSW3OTACYpeSAKesO0ELiI6OWMf7jSNVkF9ZBBqSi4R-HwrIMmHGat8Ff8V7xmCS1GpTPcv3YQcddSuiwEPOiWhhnvjztSO4kSzhqqj907XNEhDLMYqWO157KTq_fjJvBiS9GhREscdOgUQe88sWDxbyZ4hq67wubQ</reference>
  <id>f157b2e0406dcbdaa7e787a83f2ce8db65e7e66b</id>
  <place_id>ChIJBaZ8VCOEqkARElOZurqgWJk</place_id>
 </result>
 <result>
  <geometry>
   <location>
    <lat>42.6062890</lat>
    <lng>23.3477507</lng>
   </location>
  </geometry>
  <reference>CmRRAAAAJ7jJ9eF9MyWLPRoY_3uy7v2253szWABaU0FT70n-Qj0ilGuf7BJe8Lg8aaJMdr8EFR6DFKB-YMQxALY-XRVZZvksEtsSlrOdDhzVWYqQjay8h3keT94-wxDxuuIvbHOAEhAumdFu242lblIu2C9eips3GhS9rfjMOMtvTcB2P6SH_HTc8imyDQ</reference>
  <id>af48d655bd5c8ce2d1c820f61790e15aa91cc07f</id>
  <place_id>ChIJN_z3rGyBqkAR3AHVt84ZIyA</place_id>
 </result>
 <result>
  <geometry>
   <location>
    <lat>42.6867320</lat>
    <lng>23.3973930</lng>
   </location>
  </geometry>
  <reference>CmRSAAAAxIUMygvnKpEGV6IA9okrhsXabs_BstK_wVguLGsH2yAidhy2mzNIps-56kjjqQrYiqjQyiuiYI9tzYxd3U5YgvTpUtX1RiF4pRluUPxg8QUB65ecnzqkJyp3l0G3Lt-NEhA21xLtv9o7oTTneaqHCL4RGhRpfy2QiBJAEi-1DstP5VI-Ze5vzQ</reference>
  <id>489f12de41788af8c9bed6bb1cebcfb3b935e589</id>
  <place_id>ChIJvV-nfgaGqkARlytaDcFpzNA</place_id>
 </result>
 <result>
  <geometry>
   <location>
    <lat>42.6684938</lat>
    <lng>23.3190305</lng>
   </location>
  </geometry>
  <reference>CmRSAAAAwc1668fEXn843eBCMretxCt-6xIuWu-2jYeQb_Irk1q69f02tsyYVhmXNpfZ8baCE1oeNl7uNEnuz1FsAhjUscxo8d5f0PGTxNoa7KkimKtUVEsWKYao40nR6EIxf4i2EhAYlQ9vOjJGz7uAgx9d18AwGhSKCXOqjbSLVrxyWvmvmFRHQQV7sQ</reference>
  <id>60906c7a0b8528a60e143268e16b03f0527ec045</id>
  <place_id>ChIJlahX31WEqkAR47vyeyOWAbI</place_id>
 </result>
 <result>
  <geometry>
   <location>
    <lat>42.4845650</lat>
    <lng>23.0425570</lng>
   </location>
  </geometry>
  <reference>CmRSAAAA2z7p-CtHaZfCZ8WnwXWEYcr6qNb_gFXvA10h97PDJMzqSGLkzUmLUP91O98NwvGcSSIL3lEAX0tM9MDdLgagek7x18N5sQ_jhHZWyOn9Aben5gvxgMBjgb-h62lyyNgbEhCmWD7YM5RpHZMv995QPyhsGhQgmYpE4MIz3VHCKvUwTGHkDTDPeg</reference>
  <id>e18e60304b5877c9a826aad11cbfc217c25ce6f5</id>
  <place_id>ChIJfxC2RA3IqhQRGRq9cDEhlMs</place_id>
 </result>
 <result>
  <geometry>
   <location>
    <lat>42.6291753</lat>
    <lng>23.3081899</lng>
   </location>
  </geometry>
  <reference>CmRRAAAAM9q14PG2Yp3It9pUbfefzzLwDeY23BI-esxMaiskUBJuuMDgfIyE8Lpzz-LZLWrKxokSx3BFTZ1neL39xscof9dvWd7QK-weiD6XEEXCn3Fi1il6w1rjaQ1vR-3Jnpq1EhAVeEvwx1hxfYyo-Md-UQ3kGhQH2TFvhywd-W79UR9_62E0brwWxQ</reference>
  <id>670680f82183ccb91195e0afb76d1364ab427957</id>
  <place_id>ChIJX2S4fY2DqkARkMA1iASrLSw</place_id>
 </result>
 <result>
  <geometry>
   <location>
    <lat>42.7402968</lat>
    <lng>23.2525364</lng>
   </location>
  </geometry>
  <reference>CmRSAAAA4H569HW2aEDdkr80zbm1wo5XMlrcwUqvO9b6xSt1WbPpk2AjQw-n6VYxWWaStcrKgl7cJqpqe9KOyFEpP0J68tkLo0edvOCsRtV8pAjfDT15ZYIQ-U3NkVTecfog1NAsEhAED4AbmgdQuA33WWf_JhdSGhS4itVe-MOP_K2IDLFTgcOEl8godw</reference>
  <id>e0f25abf11178ec033a09b351db36f09fc7931b7</id>
  <place_id>ChIJVVVVVYCQqkARMSR8NsEyA_Q</place_id>
 </result>
 <result>
  <geometry>
   <location>
    <lat>42.6559874</lat>
    <lng>23.2837535</lng>
   </location>
  </geometry>
  <reference>CmRRAAAAgw5ueecXil5uKRjtipFxbfxbAbGwoNJSHbkkUlagmuzjQWA9HlZO7cZNY-p_Vi0Xdp-j5Fv8ZXQhG3zc2HfJ1ai8ExzyjXygXhMgr-1yq8d0ORgN2al5YHuYn-YsdPz3EhCv5GSMgA1DgcXqXoW6ccDVGhT22TPekESiM1XcgqNQmlOgO2c32g</reference>
  <id>fa452e2ea05885bced4cf9f43e459223ed18e822</id>
  <place_id>ChIJjc8lvJaEqkARu3BwWiRY2io</place_id>
 </result>
 <result>
  <geometry>
   <location>
    <lat>42.6132830</lat>
    <lng>23.3344960</lng>
   </location>
  </geometry>
  <reference>CmRRAAAAnHrEjhL2VQ8hOZB5wxJSR8oxVCJbI3LCTmE9fEppo4JPK0i43fnxGXgY0wiLgoQNeknc392aHqmrImZ-mrc9G5EULlzBia7BgWTA3YH2vri4Cs15hPKbKzfFPId3qFzyEhAp8CJ9Zl3Ij8ucSlyPKh1rGhSuG8eeiu5szRnewb359_oCMkKgOQ</reference>
  <id>5c73677cd0695ca6700568bbb8db3fffb1f4eacb</id>
  <place_id>ChIJ2_hzameBqkARO-xUAacBCRw</place_id>
 </result>
 <result>
  <geometry>
   <location>
    <lat>42.6195389</lat>
    <lng>23.3373271</lng>
   </location>
  </geometry>
  <reference>CmRRAAAATrUgUI4XL2mWzDfIzsKZau9-s-kMeEO1DHsZhtIUOIjiIDGJdoihYDp7ow_jJiy-Y6evwngp3eqvYjEhnvCg1ixUoU-bUcQAw7smQxsYSI5d_STvo59_mgG8j9d_yNy0EhAKeCQ2QH72MrDqbqh0pQlHGhS9k_DvWuydgBZayC755Sp2cktYVw</reference>
  <id>aa3f864748a498d6815d60cb1faf1951f54e3c88</id>
  <place_id>ChIJc3VIfa2FqkAR7B6DgtTYCn8</place_id>
 </result>
 <result>
  <geometry>
   <location>
    <lat>42.6937571</lat>
    <lng>23.3207150</lng>
   </location>
  </geometry>
  <reference>CmRRAAAALyZjBTFnHlY0hqMZS-rCwLW5SoV3DXuGUDOw4xXw04NeM1ztLvLiKOu0BfTyCcKecyUI1mjMkpF7TS5DuIguaejg_YOmdYxB856SmDpdpt2MqW3XdBxQQ_41t5ZOON3nEhCUUxUrE8dAOz5d13GUOGIoGhRPGmGcwgsDCHX5uiR0cz5NKpE5wA</reference>
  <id>804783a7177063e585e9f550d8955236667d5e40</id>
  <place_id>ChIJjet60BKFqkARD4zOrlZGoX8</place_id>
 </result>
 <result>
  <geometry>
   <location>
    <lat>42.6555820</lat>
    <lng>23.2802860</lng>
   </location>
  </geometry>
  <reference>CmRRAAAA-KtJWTkx3GyTrdBpyvF_9RvpWDTMd-mXpPgYeiCVHQI_YiOJe0nrLX5clViFW5-OoU3_6rWVaQ-9IrZRRkUrp1bzYGuuRUllbkpUlHOb8e6tgdfTfiLzn44hbqF0o3tTEhBzaPpdvFaJ3eqkdK_xMoLNGhRZwOFhH4CFypT0z-abIxCM3e74fQ</reference>
  <id>ce5929e378b5f7eeb03382f86feecf4f82ee0d02</id>
  <place_id>ChIJmd6jr5eEqkARDv8JlVNLJSM</place_id>
 </result>
 <result>
  <geometry>
   <location>
    <lat>42.6934772</lat>
    <lng>23.3328044</lng>
   </location>
  </geometry>
  <reference>CmRRAAAAb25ND3gnUjYqDNmI5fMmUeXQpHESni-nH-Xt15oxQmAFPBpzpX1Co_eF4AGGNseMcDoBrV--5NchToY1ev0rJ3e48oaNmo4qSTTX4cehnqir3howVBdXqOfm7pgSccX6EhCmUHt0-658rrOw8-cHQPOjGhTgt1unsCRybr8o2Wz-kuRxYTcpsA</reference>
  <id>3d00cbcb515e186aabe84dc481a8e7db547f71fc</id>
  <place_id>ChIJldM8zQCFqkARzZlX1JfP11M</place_id>
 </result>
 <result>
  <geometry>
   <location>
    <lat>42.6966730</lat>
    <lng>23.3226070</lng>
   </location>
  </geometry>
  <reference>CmRSAAAAxqOCrXnudYqGiMH6ooMRaKJWLmrWwn3kxpbdObMnUPJU8rX1-a84JxdqjD8KMuEKAxrtRZZFQmwuymtvuOE5dhcpE1qLQtEthDSXMTvGSj5Ys8AZXmYWYmR2l3Yum-OuEhAYXUTJwTpQLiHxS2IWrNfGGhT0Qpj3DDCGfz1bjAMPx82BIhvf2w</reference>
  <id>7045bdb22f498288fd18090cd2d73b0c21b33a9c</id>
  <place_id>ChIJw00hj26FqkARYmihxbw6gpA</place_id>
 </result>
 <result>
  <geometry>
   <location>
    <lat>42.6878586</lat>
    <lng>23.3294472</lng>
   </location>
  </geometry>
  <reference>CmRRAAAAU4Q-w2-Fu9k5ZtekpfojZWs0JFLFmL6N2VqEjFYk8IR4OIdN7-wVCdSoLIbnpJmqYK5O5Zi-6PfYTd7ZUnIFwHBxA7sC5GVBcXb5ja1VnfoIky38sVyX9mQJFcb4oo8ZEhBzbIw4Z9jVyOdUsmTZyvBeGhQI1bIqYWQHUpXIQylcq5trIZETOQ</reference>
  <id>d12e5cf82bb244fb31a386447c1f2e555a13d4bc</id>
  <place_id>ChIJ1XlSDguFqkARpI04Z1hLYQY</place_id>
 </result>
 <result>
  <geometry>
   <location>
    <lat>42.6236939</lat>
    <lng>23.2494678</lng>
   </location>
  </geometry>
  <reference>CmRSAAAAMMuxRcdZzCYnyCJpJ_-9bv6ErG_ugA-goZk78a43MCbZ1KHFFDO_0NXGm0Oy02DQOnkhcRm7zIUNUtHSdTIQoYxhjMt7yKSRQBYAV1iy4SUiUoByMoEffo8GzueP-ytSEhDqGdqJRPByFj8ByZB_zDaXGhSYnHXvTpOkwFLEsTxeXigWJBU_Mw</reference>
  <id>dc8c73b8297f491d2a8d4080eca185c9a0726c43</id>
  <place_id>ChIJnXCnVj2DqkARDJhmVG-sx70</place_id>
 </result>
 <result>
  <geometry>
   <location>
    <lat>42.6820266</lat>
    <lng>23.3238543</lng>
   </location>
  </geometry>
  <reference>CmRSAAAAHoWkgX_z6GXEaCE_Eo2vxAosrR_hh9rpbWrjmz3C6pfQaa1Nmi3uxY5AM8oIMtWlfqIbtwsXowXprfv6lAk11nNgFzZftuv9GRrRl6YhLIQDm0mRCaSa8qRVRMomttX0EhDyoXhaX3BkUkQwpoOCb2cyGhT5ULeetgztpl7s6mnqX4H8OxG1Bg</reference>
  <id>7a04c49fecb75e454849e1ae52dd6d65acd68c3f</id>
  <place_id>ChIJb1lcPAaFqkARv8cRHb3LA8g</place_id>
 </result>
 <result>
  <geometry>
   <location>
    <lat>42.6893500</lat>
    <lng>23.3247470</lng>
   </location>
  </geometry>
  <reference>CmRRAAAAA9CUDTVoA_g4ZYZ2QZnumGySQQSaCPIDMZzuu-YER_SqqwU-wb7ehZX5yB4XAtdgIpcZm2RSPgNQtrI2zW-fkVvCPxRxhXJQemR3y8JIPehZuSPcIyrnE6iFoi16njySEhA6BAETXxOlTS_5AzdF32D8GhTzv7Fj8OGFZVhRfyIliBSZHFcphQ</reference>
  <id>740f5c341df47a97f1e550aa188174cae24ada04</id>
  <place_id>ChIJzXtU4QyFqkARFoQ60233NF0</place_id>
 </result>
 <result>
  <geometry>
   <location>
    <lat>42.6930410</lat>
    <lng>23.3212684</lng>
   </location>
  </geometry>
  <reference>CmRSAAAAm5ffTs8Vb06wrfSy3EBJnrUfQKNxCSuCgFzTR1GeygxEXRQyGE91KDDQ8VwgczhPDoxMTjizFZy1L0sf-Anj-vIniw898q9pnm0QDi5obGbn5I2X8kt5OvB9w1oKSKX0EhAWkoYYEIuWvYGDIts9e8IXGhTxIVomMZsbRwaBXeTMDVh2AKR97w</reference>
  <id>51a7939c7f2d5e0f0727fa31c9f111e911f14e1e</id>
  <place_id>ChIJCyZ8Gm2FqkARqIRoTb7aN-E</place_id>
 </result>
 <result>
  <geometry>
   <location>
    <lat>42.6562217</lat>
    <lng>23.3878271</lng>
   </location>
  </geometry>
  <reference>CmRSAAAA1EAu9jqtQPjZeb58TqPOHHrmY2mgjujDVSx2fyU_t63c3A8l51qwdoDTsZDymUXNkfPr8kEtp0FlfnGxOUz3pt0hJ9uGIZz7VLSPMXNNQGoM39CLK_9WjKhQp6zuo-UpEhCJo-BeXHRtyUEgNQCKexx7GhTd5p0ytNzwni_XZpDKHdDygCwZbA</reference>
  <id>e03ff7b66151b69966beb2bf09f2ffdb3361221e</id>
  <place_id>ChIJS_q1t4uGqkARMx9yP8w4NKA</place_id>
 </result>
 <result>
  <geometry>
   <location>
    <lat>42.6777880</lat>
    <lng>23.3098490</lng>
   </location>
  </geometry>
  <reference>CmRSAAAA03EktHilNUgdf7up0xvqYsDqhCvxzhOh6snL19bF0hm2DAjBbePrPU0f3pF39BL58Zsav3_XSVfRNmbtP7wabCCjo-wlexjtcQZO7Z91qPJJ9WkodXPcVZmGlp0aYsyVEhBJOw4RaIy7d-0sHbGeQbCsGhTx6Adf8jDHfmVZHEjSRLEfXIhoHg</reference>
  <id>ca9f4181875d720320a555986f378b19458cfdd2</id>
  <place_id>ChIJne-zKR2FqkARiJeRkmWHh9I</place_id>
 </result>
 <result>
  <geometry>
   <location>
    <lat>42.6591400</lat>
    <lng>23.2723700</lng>
   </location>
  </geometry>
  <reference>CmRRAAAABZg1uoFCxoc7dkTNrQZ6M2pMgNWj_13Tka8P0RgmhcDlWqYTfF0wu3ShvQwXC3CjQ-v_bqAklJEe_jDHI5ZYI2sIeEhNy-CGbUqTLc8IE60C36AFLKLBV9nGMTs-pqrsEhDAcohYaIfR_7eFPh2UcQTrGhT0A2ig-qjmjXKfTUOZtv7FpoPeeQ</reference>
  <id>603d561d6d13ec19c8de2da2b5434d7ecab61ade</id>
  <place_id>ChIJ8zHA77uEqkARy9YeQoEv3G0</place_id>
 </result>
 <result>
  <geometry>
   <location>
    <lat>42.6027090</lat>
    <lng>23.1136570</lng>
   </location>
  </geometry>
  <reference>CmRRAAAAwriJmoDTIP-UuO5tmz3W8dXcpd7a5KFACB-YdjFQq3jm9CTuf1OKNXNGxE9N3TCVmn6XwbzC95GDkufm6iJDdKEAsLaGr0AsZA8S5M25vEVfiIZtsS1ciIRJI39yI6ZCEhCDdMY-TYTO5S1Eo4kT1mEWGhTjcZ6GrzsptzZtFA9v5tQquK2yMw</reference>
  <id>4e792f7bb5891b1653f68777769028a18ee10fd7</id>
  <place_id>ChIJQWWTm7PMqhQRLCiS1RJstAI</place_id>
 </result>
 <result>
  <geometry>
   <location>
    <lat>42.6982000</lat>
    <lng>23.3274600</lng>
   </location>
  </geometry>
  <reference>CmRRAAAAmR1eEpmvGsxtRpPerVXIYN7vzIGr5k7D55U9SQZRNygAQwPCDo_MZJnGeMbRA6z0EjTX5dOqn9MSbibDtcnnb7oJLWXR_lP6IsuLN89t24hBuu992EMRBOgtQagno9z-EhB6zlbrWUUQu-qm1aGDUkboGhT46e5vcSy3DD8MUJCLR4nELkB-nA</reference>
  <id>fd96c1173f93c5a622c71e5c5daa7e127da6b16f</id>
  <place_id>ChIJIeAjw2-FqkARQHeHnY-cCi4</place_id>
 </result>
 <result>
  <geometry>
   <location>
    <lat>42.6897478</lat>
    <lng>23.3244800</lng>
   </location>
  </geometry>
  <reference>CmRRAAAAf0qIxD7UkWXqp6ZJaTVabftjSyrbJpDCRAwh0LxLQRx4k05Pue5Mj7yKGFQXISY332b4beutQ3L2rJ-YCCOQdSgA4rYfEpiRKLpMJVDMav1ckzpkYPk2Bx5yOQrfvohKEhCimAQ0soAOBfcTAdRP6nCkGhQIvhUbzDuSZP5IvjCtbnUtsp-mAw</reference>
  <id>14d3fb7407b90db67a5a97cf2a64c730ff22dcda</id>
  <place_id>ChIJHcxRIA2FqkARZLHqSWGypSY</place_id>
 </result>
 <result>
  <geometry>
   <location>
    <lat>42.6940346</lat>
    <lng>23.3188229</lng>
   </location>
  </geometry>
  <reference>CmRSAAAAIVk3nT2amGjupRx_gvUOdxPy67D5zYiJGC9mAuHVJfPxXh-KHa60RBkM257HFDYYYmc9oS-gEUAmJpd9D6cDE2XjmjndnzHVrUFMUjenhHWQBnxhWrj6GSUkrwSDEltsEhDkHQ_1zmsYJJmQwRd3H4rHGhRS-YGGaDpsXegmAg2JplACKiAlOA</reference>
  <id>aca16a42ced44cf2a2088d5776e86e24acec37a9</id>
  <place_id>ChIJPwLAiGyFqkARhNE-zl9vtIM</place_id>
 </result>
 <result>
  <geometry>
   <location>
    <lat>42.6775603</lat>
    <lng>23.2963846</lng>
   </location>
  </geometry>
  <reference>CmRSAAAA4At4N7JY3baqWC53IoY5BZ8HyAAjFyfxCikWPwBwomihVtvmVJbmhMUvlIGBMIaSwnE83KJT9ipmSqq1WRn1UAJzqrz-zPgr9hG-hlAJnhM3O891NEqFpFNMD5M0YAmPEhCXNDfKnF-8uFy52QS1Zs3oGhQqIAmP93FHW05O2fdT_r05Hu5jmg</reference>
  <id>539ebc76d2649bd3f0dbff557f2b96a3e0d0bb5a</id>
  <place_id>ChIJi1hx2d-EqkARqk_66tDJD6E</place_id>
 </result>
 <result>
  <geometry>
   <location>
    <lat>42.6916160</lat>
    <lng>23.3200950</lng>
   </location>
  </geometry>
  <reference>CmRRAAAAL3cpKfWKi5T0IbZb35Wiqf3RAuG9ISCn2dCCIdQffIHwXct_qkny5XJ2UAZLKyYyhMyr7ttogCuHfc7mjT-rh1KVgpcUx3nQRI8dJDyo6MDMa5blEmfYCwFO7XMnK0isEhCsDYTCWJ41DIaR4R9YkRGvGhT7_vjLKAEomOyxGSi_0HXil0NhYw</reference>
  <id>0e0e58ca08147063c0a04765abba003d1725b9e3</id>
  <place_id>ChIJIxG-Vf2EqkARnUWxbj5A_Vw</place_id>
 </result>
 <result>
  <geometry>
   <location>
    <lat>42.6236650</lat>
    <lng>23.4228940</lng>
   </location>
  </geometry>
  <reference>CmRSAAAA9GBiB2Y0ZEwWiI5TTm-ta08ToWI0ibl4bkQ_0sEYaIQN7WuSkOIpPfnNJTlCov5SkRzvS5LnUuEmPJbmyKG2FUi6ubeN_bXDSSFl8FxvRL22ARA4w16Rf8I45DFqE_xNEhCUeBEO7rGei39vLh3a_08WGhRJ_XsSYdiS9ItmiaPOu12PnSd1QA</reference>
  <id>6e02740614f736dd1dba4b9e724426d1d69b58b5</id>
  <place_id>ChIJdzSLzUeHqkARAzEPidLaH_s</place_id>
 </result>
 <result>
  <geometry>
   <location>
    <lat>42.6933141</lat>
    <lng>23.3257770</lng>
   </location>
  </geometry>
  <reference>CmRRAAAAVXTNDxb7JWwvs-czoU92ayA5Qhpd8_2sYkhlyENqJlfedteXDU4bSxKAuXa2kOASkMsSvpGpKE5OVcjIB65ZjIFV3ZjXBR7YDfuYIUh-4196x1_Odv1ZyoEWgE32h5p4EhD1ZHQ5VdIIXdhd0c4EZilXGhT8jPGtNGeGLeFzxBwYGvfzjWMNJw</reference>
  <id>c5de6530a54bfdc192aeac7c73d25305bdf903d1</id>
  <place_id>ChIJyz5tw26FqkARUDnzzFeWsks</place_id>
 </result>
 <result>
  <geometry>
   <location>
    <lat>42.6912681</lat>
    <lng>23.3224947</lng>
   </location>
  </geometry>
  <reference>CmRSAAAAnPrroqNiUs4yoN0E4Jd8uVx8Ztlm9orVYvAZhMETyEpoODQ460CJI_gARF6zRatqCFHMjzZ9ygwBVC7yfKF6614xgmM9JP1QLDSM4UszoOWhxwAxaEPVpmIiaSjeT4RwEhBhFzZ9njmf8eNc-cgK_CuKGhQ5o6lsgrINobSoSnZgIH29sL91Zw</reference>
  <id>4ef255a148a7e7f0756616980ac5fdb4175e4fd5</id>
  <place_id>ChIJpWizqnKFqkARcvZMLoGGfMA</place_id>
 </result>
 <result>
  <geometry>
   <location>
    <lat>42.6796900</lat>
    <lng>23.3243500</lng>
   </location>
  </geometry>
  <reference>CmRSAAAApjRwdfZVaF44zcxakw4NtjMVS0RITsT1OFg2A6S4QG1YzJ9Yu2IBzAf5m6YjQWBOkDfSLiSS-_t9HIIjSII849oV4XlfZi2TsgO6W5MyBdhd5FQjivD_dmegJPhRltU4EhCDwUy3B3YxcCBP8_797AGqGhRrGI6FpD43YQP2ihZBWjbJ-wtynw</reference>
  <id>a539b923d1531ce4ae6a8740d1cdc3b915e0d78e</id>
  <place_id>ChIJXeJ6mAeFqkAR4epIwLZ7xvg</place_id>
 </result>
 <result>
  <geometry>
   <location>
    <lat>42.6477500</lat>
    <lng>23.3968000</lng>
   </location>
  </geometry>
  <reference>CmRRAAAAPB6r8MZ7_Rs93VPnRjxoLvwpps30yCNhYtpLY3JgTkbjoGfkbaeaFn2ak3q-_qogEvjnxYQDZcEFMOGNjpPT4CN8fh-RUrPdeNSWL944Gw-BX2AbmWpuVsZFterqA4tdEhDiH2a-4CXyph3s845VqXmWGhSkwzEIQwDMgY6NrinBvWhtiUi5jw</reference>
  <id>4bb0917ace3d6a8f3fefc1ea6c5d96bd76ecc5b0</id>
  <place_id>ChIJY80kIPCGqkARdFiusZPooSo</place_id>
 </result>
 <result>
  <geometry>
   <location>
    <lat>42.6777971</lat>
    <lng>23.3291034</lng>
   </location>
  </geometry>
  <reference>CmRSAAAAOnYStC6sV3514qKHamIYa-AalKBQxk9Z36x1eubSkKEdTmuHbQOOgp9rfmzvu3aWn8jtTwGLRx0mrNCbovxOXEdFFHuEoabvxJsTDks6OkEZ1LVemNZEdO6gWAK05TanEhAxfizFJawUrIF27aZPLUhdGhQaaM8IOqXWmokZ89V6JEd-xyK3LQ</reference>
  <id>7b2217ddc7baaa78ad2f5a15397ac20775d555bc</id>
  <place_id>ChIJV41TBKmFqkARJJmJlr0V9IA</place_id>
 </result>
 <result>
  <geometry>
   <location>
    <lat>42.6671947</lat>
    <lng>23.2816290</lng>
   </location>
  </geometry>
  <reference>CmRRAAAAVCxlCPdOYhgR5xLg3jMmdVcfftEe-pdl1kduDOjGx2bRnNXqXQ-a5QGOu3VBOBaMZ3alZgbPbvsRzoKFeiPVICLLlzU_Hjc2q0grPTUIFR3wR4cfwNO1ZLSSMFdWfkPZEhCtIYPY2uFg23K2Y0NwHV6WGhSeXWF_sORb5CZsMuhj1W_Gd5tv-Q</reference>
  <id>6072fa31717be831cd687b61e4f397ca6375bbc0</id>
  <place_id>ChIJu3s-WcGEqkARw3L9VoBY7GE</place_id>
 </result>
 <result>
  <geometry>
   <location>
    <lat>42.3299966</lat>
    <lng>23.5595155</lng>
   </location>
  </geometry>
  <reference>CmRSAAAAA03e2GdSib1kL3InaRC07bEuFqLXCUg8dkvZ-yrEJE3VgSYcS64YFN3edl0ryaCOzMODHfvrYcpwt1biVmvcejfkw9qs3NpelWiZuweqKn9z3xS76akPKUs1l1dX0XlIEhCHIKtx0MBNRJMq_yRGMwufGhTX1Ul0xsk17Ldp7NBToWBkzt_24g</reference>
  <id>f5b8374bf7c50181f64203018cf10e448ca91592</id>
  <place_id>ChIJb03olyUlqxQRvBAamTcmCZQ</place_id>
 </result>
 <result>
  <geometry>
   <location>
    <lat>42.6570200</lat>
    <lng>23.2361000</lng>
   </location>
  </geometry>
  <reference>CmRRAAAAbanpfZKPk_lAxHNTEPLrrLauuaR3QhnXnVXZnM13jNibmkiLS8NGVY1RBDv5AU9wV8HBRpQxJUZFeNNY8CS8hNyYWa9IT_VWMB_jSTce1n6a_ay6QlYaZ65HQwjnIf1rEhDXbYT5VCZ01VxKm69P8x2-GhQX70fax1AzxyO0Cydoj6kn5ayUFw</reference>
  <id>a82d230fc8a98f3f8bd253be0e89af3255f418f8</id>
  <place_id>ChIJwT3Q3lmbqkARCkMK2Upm7lY</place_id>
 </result>
 <result>
  <geometry>
   <location>
    <lat>42.6909131</lat>
    <lng>23.3291700</lng>
   </location>
  </geometry>
  <reference>CmRRAAAA2TZGjaySltJwuTXJDxUhR6wPyG7WM7t8IkJj6yE5gAKtjn3w4BiiUSdqD8WuGnAQtJIAYKW8UbSBaBcaauI3_EWaPUnkGPKCZa3xd4AG6O6C6TvDzzxHwrpr10icsf0hEhC8FpRZVGMp7sQoFJ9-DHzhGhTEL0HFAhFvs2iv5KMRA3_AD3XCHA</reference>
  <id>6c9630d5d02c29bdd1ec9772009272b2f1327168</id>
  <place_id>ChIJVcjVoHSFqkAR_6tghTi3DT0</place_id>
 </result>
 <result>
  <geometry>
   <location>
    <lat>42.6935522</lat>
    <lng>23.3185410</lng>
   </location>
  </geometry>
  <reference>CmRSAAAAWw2L2aUdNfbBcsgjWEqRTCvwHofHji9ofJnDEbYLsT7J1G4cd9PXl4rguGKmGUFaP10Ri9Qx867dS8mdcVt6Iu3Z4bpCYG1MxI8wD1WZYfjkdUodvzzjof9IMpZaIizhEhDIuNo5p1jSy6QmbOT03iSwGhQ7ZXtwEdWkCMqYzJd8IwScqpS6IQ</reference>
  <id>2df81c67c12b72224db2cd90a1e7e1260074c4b8</id>
  <place_id>ChIJRWXGlmyFqkAR7E1lhoPyEZk</place_id>
 </result>
 <result>
  <geometry>
   <location>
    <lat>42.7072543</lat>
    <lng>23.3613136</lng>
   </location>
  </geometry>
  <reference>CmRSAAAAfCxTVZ3JwsWIrqFmjP0mG-ejAO5Zi7ZBuXd9COPsPFGo1s85LCiMoNK8HLW4C1sjMEjotNkW5j40YdI3Q_pDAiO4Ib-dggslyEuud-RYOz0Ia3gtCpIcl3ihA-WSLxD3EhDrzdJi9dfZKVkAPV5o2IcQGhQvi7-LVEQOcj6yzzWSwQCNT-mLOg</reference>
  <id>1bc2526893c0405a68e8d4636439add86f648c92</id>
  <place_id>ChIJXyayp3uPqkARXaqk7gZXD-4</place_id>
 </result>
 <result>
  <geometry>
   <location>
    <lat>42.6436164</lat>
    <lng>23.3384488</lng>
   </location>
  </geometry>
  <reference>CmRRAAAAiuR8R_Uj_6I8mnF6lnsFOHIiuaiAaByYDpl9P4Vb6tTJWFg7BD8m5ob0V0rfbFPyTqVFsgDqF00cB-mgtGzGO5_zlXfrYyphE-4JjG1ZpB-Zdb6sT1WV0noe9NxS3I1IEhAxVTtP7Yjy8TBgdUaaJjuDGhT_3e2Rq_rO9_KPGRKGxdWBI2cqXw</reference>
  <id>9b9b92be8ebc807739ec3af9799b9b9054e07706</id>
  <place_id>ChIJIanKbBCEqkARQLXcJ1Vn_jg</place_id>
 </result>
 <result>
  <geometry>
   <location>
    <lat>42.6659400</lat>
    <lng>23.3267850</lng>
   </location>
  </geometry>
  <reference>CmRSAAAAnxP6Sra-Y-040jgUg5F_30FniICIcDyVM_xWhUiY3SDmw7fY8hSy5D-sNPqvgzvbAUmURLpIQj3M2DN3MOLknjlxR4tMWZIvnm-HKDuHF29WKMMqDIRGOj08nvqgVoYIEhBcYtvnjSRLpsYGdvGAbK9wGhRb-wqur1HhN-IFMNZyXsxSeTyl2Q</reference>
  <id>0d0e9484fc94b399929a9fe8bb684650d2213359</id>
  <place_id>ChIJrTHblVGEqkARHA88Gs982pk</place_id>
 </result>
 <result>
  <geometry>
   <location>
    <lat>42.6702446</lat>
    <lng>23.3137701</lng>
   </location>
  </geometry>
  <reference>CmRRAAAAnkXM9jRQTU-RXsBQ7AcKbJHT_1BxYUITblUNgAbgwMdzXI6iffsBQ41AtsOQuWNIxQfx5lS4XxQqNUNHe4rqPecORgWKJCRc8-BEr9N42R0BEEWQTvLx11SBhSKRvZ6GEhBmk_mE0FzOvwzfiOZO63ONGhT27qdVWCksPZh7QaJ_yIt9rUp5Sw</reference>
  <id>132f4f210dbba719012e9a48764d661959152ea7</id>
  <place_id>ChIJm6Av2_6EqkAR7WrFLQb5ulw</place_id>
 </result>
 <result>
  <geometry>
   <location>
    <lat>42.6608146</lat>
    <lng>23.3827967</lng>
   </location>
  </geometry>
  <reference>CmRRAAAArRg1BQtCe7gi4exGzAEuyOkOnxLn6agPK82U_Uz5CjGIwF0BMnWDteX3pSz4K3C2e0d-TG3CDs0iZTpf2sz-g6jTSXGWgOQDwVKdrL2WbmHTS-laoTnvMvLBrcZKp4SJEhCvnxQ97Bu83EW5nD_Y-10AGhTLfWLawONUtJaJFtef_2ga34Zzdg</reference>
  <id>14e52e427abbc39a3eb32aa97d111240649a6427</id>
  <place_id>ChIJXTz-FX-GqkARm_46ZGTxxzM</place_id>
 </result>
 <result>
  <geometry>
   <location>
    <lat>42.6686100</lat>
    <lng>23.3440900</lng>
   </location>
  </geometry>
  <reference>CmRRAAAA-X79kPMDQ6JNb4C2J_8UvO0IqZuD9uhRwQWaRn-KtdhfZSRrF9FBXl1w7U_tFzRb23EZiYrLGTI1U6nWaN1F8rD2qjaqCNZzQd9Xpsdow-WFoPf-jVU1Z3FB5Ah5GpoGEhAHq8Yj8FXv_1pScIxAR4pDGhRfwLDsnLVZG465D1FbQ8h-3CrAfw</reference>
  <id>06213e46b4af46bc9e00f23ca79f50ed680b0b61</id>
  <place_id>ChIJVXs3T7WFqkARO8giF_S3nSs</place_id>
 </result>
 <result>
  <geometry>
   <location>
    <lat>42.6824600</lat>
    <lng>23.3720932</lng>
   </location>
  </geometry>
  <reference>CmRSAAAAEbHd_LOrL4cEtlufygyk98xikLpVG0k53Dtukayw_d0j7r31s8yfOIo2eq0eK2wz6bboP5xPtB6OdAQj7KhAr4aZEv_ehcYQUsWzwDfXr8SobgGtp30CmZ8mT8xecKfzEhCefB5dHAQlDPXI_N2Fd2EZGhQhLk0_qNWR0TA3EdeGnRQ1EOqyEg</reference>
  <id>d0d76a2dc83183e961e2037727b704d7b96b3014</id>
  <place_id>ChIJV91V0OeFqkARc7-sF9dsyfk</place_id>
 </result>
 <result>
  <geometry>
   <location>
    <lat>42.6920482</lat>
    <lng>23.3261764</lng>
   </location>
  </geometry>
  <reference>CmRRAAAACNUKSE2_nm378gAyktceJQVi88KGCWsqV0aCw_FfUYtxvT5dizQJKbI6udq3F-6wm_r_tJadZq2mixKrTgn5LmOxzJVqW4C_VLTRO-Im6s6BzULL4HbkIfl9R9O05yxMEhAiu6rw2cNrkK3l11TgTV7XGhSncWahRvn-ob7ncGineVOYJ_MLLA</reference>
  <id>a608e817e005ab6625e8fb5e2047d7769096dc19</id>
  <place_id>ChIJq0yvgnGFqkARZc-PzMZD5wE</place_id>
 </result>
 <result>
  <geometry>
   <location>
    <lat>42.6888758</lat>
    <lng>23.3224276</lng>
   </location>
  </geometry>
  <reference>CmRRAAAAPgR7qiW_FfGToI3APaWMqr34uv79AeLC-FZ2UYYu5QXEkJLpBLBBEDmzeDjsAN8GvQGjycQAVzKbOv7EenQHWgQw9v_evA-r4_AiAjVYxPPYN2VjqI4Y9iJq0IPytQSlEhCzbCtVt3Ca-jHf8E36qXEzGhSWAJWxepT-QBJlQaGUlFYyCXoQ1A</reference>
  <id>550e5d6117de518a277aac32619746819428b338</id>
  <place_id>ChIJER1noQ2FqkAReEXwcAqPN3M</place_id>
 </result>
 <result>
  <geometry>
   <location>
    <lat>42.2674610</lat>
    <lng>23.6040510</lng>
   </location>
  </geometry>
  <reference>CmRSAAAAxEWbQBL-0d2dV37pIlksngsylVY1qv3QaSvWYJdhT6qxFmvlfhvTi7WoL3fDRLjqcJQ-0LELhE7LRu_sXg7ql3YiP6cqp4aW5lKXnSgNMCfo1_zy_z9l3lShfnvcoGghEhCkwjjR0SbRDaAsK_XARys7GhQ2wD471dW17zim8P3qnpibpzjUJA</reference>
  <id>4f38363b29ca11f3c859b88f775f6ec26301b99d</id>
  <place_id>ChIJ6WMbhJA8qxQRDmkVqQjq-_s</place_id>
 </result>
 <result>
  <geometry>
   <location>
    <lat>42.6969665</lat>
    <lng>23.3302321</lng>
   </location>
  </geometry>
  <reference>CmRSAAAAkXnYKBXoioEge5DkkMXP4T6yAjIn8IWeh8S_25rbS3C1waQlR5YBopvFLGTMC8jhMD1wmxDSHVio_rZLkIxYWWPuVIJf9jEZZHleREpFIA5Za2Uj0GZCGP5167tsiSBaEhBgEx-JDm_4mZRr7R_fSiHlGhTFY2hYap-QdlE3mV6v-reudVQkbw</reference>
  <id>27c7bceecd9509e126adfd1dd8b101927262b5dd</id>
  <place_id>ChIJg6alVnCFqkARD3V72nLX29M</place_id>
 </result>
 <result>
  <geometry>
   <location>
    <lat>42.6858040</lat>
    <lng>23.3129550</lng>
   </location>
  </geometry>
  <reference>CmRRAAAAxBLgAz1Xal51wEIbWQuGAj-DRj4VkTdzSBujcZpb77uq3VUM2K0UkR2ms94GN1bv06IpRWRLQIpumIf8bUIGHTr0Z8ELRWfBPV0WYm3LA2KblPUa3ocJPCTM6w7ePyWREhByZQFEhHF0Duyh6bTA2G4PGhSuHLHmRKtuyhRpP9GiUwOsrlbv1A</reference>
  <id>bbf1aa5cb93e80747e2b42df207e138f7eaf72a9</id>
  <place_id>ChIJ33pfhxOFqkARd0jEQ3_HIXg</place_id>
 </result>
 <result>
  <geometry>
   <location>
    <lat>42.6891701</lat>
    <lng>23.3252736</lng>
   </location>
  </geometry>
  <reference>CmRSAAAAj3Dz3yyJMijeYzrJT1nVVKNU11tYPcpVy1Lth928DfZj7Amefh9-5jUQ-4Tf9uFC3RtmcSyM_atPLGj1Fu9_86I4UEp4pxXdslb00sP-TBaM_LtSpYM34uH238JWG8dNEhBppf1oIOX0yqr_PInsOZYTGhQ9ukQ-4UECoI5NDWLE6tktB6juog</reference>
  <id>c41b37ecebd90a4bb8d2102752eb68272990bb53</id>
  <place_id>ChIJO-HG6AyFqkARlOKfwxHo24s</place_id>
 </result>
 <result>
  <geometry>
   <location>
    <lat>42.6830914</lat>
    <lng>23.3163002</lng>
   </location>
  </geometry>
  <reference>CmRRAAAAJZoL9AsPxlZjSgWEU-ZcpJIXFOQ_iO7r6TY79LUkVhEwMZxnmDS1q39C_QU51cdve1iTogJZWl58WqxuMCNtugL0Gntj1-u0mGslb5Qs_I0xJU10xb6XBdlXzOZZzwtrEhC_rPKyQGPIF-SmDnzm0GToGhQaox5pNJ9O_rCU3eJbcPWxLHPmeA</reference>
  <id>a3b91ae7a322c44a2cb55c3de1949906994fb61e</id>
  <place_id>ChIJHyWYvA-FqkARPKnDwMll6Qw</place_id>
 </result>
 <result>
  <geometry>
   <location>
    <lat>42.6932905</lat>
    <lng>23.3189582</lng>
   </location>
  </geometry>
  <reference>CmRRAAAA6nYUTp4ncYdHOzYohhC9TTi7INdjivF48rWWH9nNqM9u7gPvxQeLiWQQUD2l8baqvTAKRsVsL5SiwHQCw1CmmEV-voS4XQFiVkrXUyYMZpvYySguVW_AV75-SLpOkIWpEhBWYmGlTByrb6nCrp7bWhapGhSly5Y_ZzKFIkB6mKx1Q5iIkjXiWw</reference>
  <id>24b2711c44a6818e4941e7dcb46db1b2e65e57b8</id>
  <place_id>ChIJlct86myFqkARrh8E9rt-GXA</place_id>
 </result>
 <result>
  <geometry>
   <location>
    <lat>42.6966900</lat>
    <lng>23.3205100</lng>
   </location>
  </geometry>
  <reference>CmRSAAAA9TsTNNYVytJ3j0scQ6oftJlnXEdu6ntqlKx7jCl93D2DiRkCRIEsq0iV7X75RamasPrB5i-wFDAzQWfbaQxYZw_Wft74V6JWY0kD_gbaJuBqvrrV7FMeLc5s94TvSEuxEhBKyldY3DZ-WguAwRnSqaHiGhRcgKXeWcG6U_oG5OdrjZpIwM984A</reference>
  <id>53d74afb7b4794daa21572155f1cef9d5f365e8b</id>
  <place_id>ChIJlwUjpW6FqkARi8PDirjI8t4</place_id>
 </result>
 <result>
  <geometry>
   <location>
    <lat>42.6687300</lat>
    <lng>23.3182774</lng>
   </location>
  </geometry>
  <reference>CmRSAAAAd-wCIqBC7MgTNLKCWxSeft_oNd05DamJvk4Ujo4OFSEqJGwS8pIqpmXTWmt5GzXSLU59KdEKXIBP3NNYT7qeeMXUgONueEEnLMAkp0UH6BvPT7fhrd5nM_D9qJ9GgConEhAkbtsffPDqKJMoLAY_ZUClGhRzkJx9FsofOTkVLJ_W1UXCSOfcHg</reference>
  <id>e66198c044828b1385f1788ed1014add151b5337</id>
  <place_id>ChIJu9iPB1aEqkARUxqExtRaYes</place_id>
 </result>
 <result>
  <geometry>
   <location>
    <lat>42.6911940</lat>
    <lng>23.3206670</lng>
   </location>
  </geometry>
  <reference>CmRRAAAAdFkcWMP0p6RCArpasZUqjbFXAYRMcrKUhPD0X4xguPbiHxYDkesYihF-yscY-pVcp03uY5cD328-EoDLAqKqBu-OYspNaw6AcsTupHuIMVg8BI0WwA25fUYH36CcJlttEhAw6m8LhEl_vfLshileM2SAGhRvrJuwyfnbpQgFAOAUUfrUs-KIGw</reference>
  <id>f88930bd33e213948b5a27940e1fc8e6b1a6a5e1</id>
  <place_id>ChIJRxiltxKFqkARHSgku4L8KBI</place_id>
 </result>
 <result>
  <geometry>
   <location>
    <lat>42.6919800</lat>
    <lng>23.3362300</lng>
   </location>
  </geometry>
  <reference>CmRSAAAAgUNaxuZ4eJTWQpOs6W6ooSA6xVIqdzRC0pl1tTMn0JKjVv675OynE3f4cjxhah7qixXmNmZQUyu3AyzlaTzk-VTg0qhwn4CirfZ9kXSRjTzwpV-nyhT1LFnqOh06NuhiEhDHiDv4TR0QdDp3t6L7ZBlXGhRZOAC6ILX0AJHN6qVjbvd61PeRRg</reference>
  <id>282cd08f87d2c7acb978aed23c49ec30aaede706</id>
  <place_id>ChIJtUGa7XWFqkARu6VWA0y7gLM</place_id>
 </result>
 <result>
  <geometry>
   <location>
    <lat>42.6828570</lat>
    <lng>23.3168540</lng>
   </location>
  </geometry>
  <reference>CmRSAAAARBvdcF-lcsQh6qZX5MmmsXkM4hE8VcW6db4MQBjJhDiBVNUNjgGYWiqqfsn5QOckKrShs7CW8QpzCia_IPawACY0KY9DvYpD4oiQPIgEga0xPyfhW6G4X7R7KYlnNds-EhAv-YesXpk2OJ8dOLNoDasHGhQMkaTjW8fJs3j8l_R5E7u5ok6CUg</reference>
  <id>4628743b2e5ee71a3df7eff0c449e33a9ef4debc</id>
  <place_id>ChIJ71EmHneFqkARICZNjpjltK0</place_id>
 </result>
 <result>
  <geometry>
   <location>
    <lat>42.6981189</lat>
    <lng>23.3321656</lng>
   </location>
  </geometry>
  <reference>CmRSAAAAQRLeBwyfV-dk0KdHah7fuG_UCefVth3I_rS3h4IWy4edJ8HFs5kvHXW1bxrjtH-FAEc4FQ6SvSNuvx1z13UJxJva4_RRWot97r-bh_p-fjkdKSrWQ06eXI_NUI777MkWEhB_H6fQZtxga3kLz3yjWz4BGhT3UhEmep4QhQrgGDykq3rBqo0dUA</reference>
  <id>4d8b51f496f5c2550eee59a1bf6f3d50561d9523</id>
  <place_id>ChIJz3GXhnCFqkARhMjBvpth-Zo</place_id>
 </result>
 <result>
  <geometry>
   <location>
    <lat>42.7145627</lat>
    <lng>23.2599932</lng>
   </location>
  </geometry>
  <reference>CmRRAAAAvTLguTtzwfLiIJac7f4chFZ3Fn6_T59lEHNouaPWkjKeGIo96flIhOtBDB8eMMEZymhsOLwCckjd6g2-GWr_alp3utdNQnvt4vnXfVGqVnQtqbo-o7-ingpOgv4poJvEEhA7ujxIaVIjYIv_CsZ1e0WCGhQ0p4CoN2aWbw7TWkL3CVDyzkyJdA</reference>
  <id>24e7da5517cb7dcfa192f29f58d042f845db741d</id>
  <place_id>ChIJneQKZ4-aqkARTj23q54mh38</place_id>
 </result>
 <result>
  <geometry>
   <location>
    <lat>42.6933600</lat>
    <lng>23.2830000</lng>
   </location>
  </geometry>
  <reference>CmRRAAAAmOa3G7FKsirHY0CU2OVgWccjWR-M0C9meSmtDqbaPkge57lUgpvI5VMhWkGCECj4rMADz-9XlPTmO9sD0WaYwQ8ZqjP6OORQPrv0hQ3ivzIClxMwfvHGAUG-JCCyKd3UEhAsbhbjm8ltCFYzR71u7jL3GhTsKVddhnKfYs6HUwi8jKD69MPy4g</reference>
  <id>b23e2fd7b58303d3341fcec6920527ac38404a6a</id>
  <place_id>ChIJ8QZMOzOFqkARSPEVhfLxTiI</place_id>
 </result>
 <result>
  <geometry>
   <location>
    <lat>42.6428187</lat>
    <lng>23.3402224</lng>
   </location>
  </geometry>
  <reference>CmRRAAAAIUL7pPh1F4LGaAEqIepBDEx-3yu7LCKPP2-9gc5bhurRnmwnngAMwa183appsgrD_eeuXseF8qmaPdbKIod1ouD4nQEnjqZ5THJoNgfuoLAzxSemG8NebfellMn2JInVEhAvVgdvoQitt9IdWn6HQIcCGhT7POCroAu6Pz6ybbZjODoWsIbI4A</reference>
  <id>4d5326efd46c2d169b532af433d59ef46dfda388</id>
  <place_id>ChIJJ3vD-xqEqkARRUiu-rMOgl4</place_id>
 </result>
 <result>
  <geometry>
   <location>
    <lat>42.6909380</lat>
    <lng>23.3254166</lng>
   </location>
  </geometry>
  <reference>CmRRAAAAVvHVRhgmve9GMdz24-xoQmMQqsSAYHEKUpLeWuqZ9-2Wg1AxPWHyCvftqsXp79JZ9PlGwodwuRAz-zpSG7FfFdnRyZciFzFug8tTcASamVijRY1onrzfAVpkTL51mQdVEhBMSAxcPZYQBz9GJT3AOcApGhRr_JGfjLLGnLPxhDI5utJzSYku6A</reference>
  <id>ec96e8a87995980f750d63f908366a168c931d0f</id>
  <place_id>ChIJ9-Pb0HKFqkARfbM9o5wxwlQ</place_id>
 </result>
 <result>
  <geometry>
   <location>
    <lat>42.6956000</lat>
    <lng>23.3278900</lng>
   </location>
  </geometry>
  <reference>CmRSAAAAMrwhCmeZ7Of7Lx5bGbGr0MO0BVBqFS7aGE4Ou4-Hy4TkZaxNU-YX5X1NrgZSF7q-3_m1-eIfcJCUJ4PvnnpsjsNcKgvBI9meUSCPNf3lrUTe7XApLWbLJX0fbhgP4GgGEhCmtnoTxzTyepqlH_OR0iF3GhQTNNSddWpGF5gJ7UW6zGqx7FrdMg</reference>
  <id>5e0a5b6cddfc0dc667a6591ffc9b9cdf8d8e34ca</id>
  <place_id>ChIJE0m67HGFqkARijbhi80Go5w</place_id>
 </result>
 <result>
  <geometry>
   <location>
    <lat>42.6712900</lat>
    <lng>23.3599500</lng>
   </location>
  </geometry>
  <reference>CmRSAAAAkis2JcjeiaqVoLJ_f16ce-3AUoWZoHo6vPmvqQ-J-qobMqO38M9OW0oHdM1cy27l-qwufFjf3TsrNd5qWR3gnurn_PQ-C8epaC49Je1zP-yhbpC4MFUQ1VqOQNrYI5qJEhCjzQ3ZiXHuNnxvB6TfFtPHGhSxovZp2i-5ucooUcZ-yPksMRnP6w</reference>
  <id>267a536ad848e8cffc9caddb912d7ac3cc2d7b5a</id>
  <place_id>ChIJIwbgSs6FqkAR7DmY2eK2Esw</place_id>
 </result>
 <result>
  <geometry>
   <location>
    <lat>42.6947419</lat>
    <lng>23.3213958</lng>
   </location>
  </geometry>
  <reference>CmRSAAAA1O19-T4dufsLxcsn8b7w_pV3rbKpfexsV6GIT3bKbdCowj6D7Wv_tpSxqTIcHbVfKaIuKPU5LNeCtljGeb1BZRZLuKgsYUB6a66kLpzS8wUPqF4GLdO6EMv6I1LugnluEhARUN7RhztjDFUKmtViVReUGhTS8f4rBXBvFZpxJVTNwtLMt2LdLQ</reference>
  <id>2b81006a02a65b5c0c6911d965b0d4e49a534788</id>
  <place_id>ChIJZ_KrSWyFqkAR1hCYepcuvbw</place_id>
 </result>
 <result>
  <geometry>
   <location>
    <lat>42.6906610</lat>
    <lng>23.3166030</lng>
   </location>
  </geometry>
  <reference>CmRRAAAAQN_ZeOIeAaMXVzazndOx-pXGNjyWDO3dcH4FCv6q7xlwdBPIxcH-sJN-gJh42_xZbDQHu8ABUYkL2IDEXpX2Gi2WaZLvi9eFBrJJo_1d2YtXCR0Kjf3FVM7w3vFtCgA1EhAYaZeQrTigi11YZKdhmSThGhR5YhE6fXDytEZf9S5EW0Nyr6x6Mg</reference>
  <id>047ed3ac560f3eae5fc994849cf6ddc34690cae1</id>
  <place_id>ChIJL2_PchOFqkARSREKsIBakQM</place_id>
 </result>
 <result>
  <geometry>
   <location>
    <lat>42.7201302</lat>
    <lng>23.2562435</lng>
   </location>
  </geometry>
  <reference>CmRSAAAAbrA7As9JqXmkHzvHqrN5ehRQ5ZsKWwqq2L2TMGfW4Wjo_jKj6HzvT9ueJZlYYUVR2mwVc7RyBooRJvqaLoW2v7FqykuEkZ9RYFnIQFBM2Fp1V6Q5BWgQCoeRBOOjn4LKEhCO_ZTdPPkZtSuNFojq-WP7GhTqvSG5DHxSS1vSaxlnM1Fzfn5uuQ</reference>
  <id>db426cd1d65e612e77ecef7b55427854ddc064c2</id>
  <place_id>ChIJF8FV5YOaqkARld7sHNNBhfk</place_id>
 </result>
 <result>
  <geometry>
   <location>
    <lat>42.6929659</lat>
    <lng>23.3405071</lng>
   </location>
  </geometry>
  <reference>CmRRAAAALUPInLjscmWKsGQ36r4_q6l3UXD_mgreIf7kBeNQABxt8Cp2HkOvjuOWVYknhEWy_604Fsix0uuS8C6LKcSccDn0Fn98TsNY39Y_pYKEa41BtK9Dc3yXsSXlJ_yaqDe1EhAnllNihFZvYn1GSAnGMmpJGhTWNmahoczCD_-eSzWic_YpQfdjrg</reference>
  <id>3bfa6cd9540df7e570596f80912aaa3dd953fa60</id>
  <place_id>ChIJx73UYXSFqkARrUzZRyCQTm0</place_id>
 </result>
 <result>
  <geometry>
   <location>
    <lat>42.6568499</lat>
    <lng>23.3394526</lng>
   </location>
  </geometry>
  <reference>CmRRAAAACFQVZRz55D5wskGrkDJRtAXJeDkHe-WK4jFevxhu1-2yXOnSj-4o1aTQn5toaZoCma2nBOWn_kWYpCTw31aqoAVyMQLSRc9JQMBNyB3lJt2xZNIH5E8-JGPdNEPzNftTEhDFew7XHLrOoOnCNIziLe-wGhQ3Tb6wcgr4VPK-I2vtQmq76i2IFQ</reference>
  <id>337b24c2ecb9cb7010d034ff164ca44632baef49</id>
  <place_id>ChIJ3X1-BDmEqkARTddS9mDn3hc</place_id>
 </result>
 <result>
  <geometry>
   <location>
    <lat>42.6900666</lat>
    <lng>23.3205058</lng>
   </location>
  </geometry>
  <reference>CmRRAAAAR_V5xqroxCPT5YramHwW4g3Bbf0D4lUgpXFtnxgUc6Y0AvL0wGWnwhT03cePPyY92aXhSQvC2W-Fli_FZEmKZxnFjDh2nIUWAUZ3_ZxGGKI4m8lyDcl-nMNXVkehODH9EhBCQuvQsl9_7F7en-yp1M-uGhQ1UaqS5cncoeRmqXT0xpzGQk8R9w</reference>
  <id>79e1f5ddd325564b14d6c30ef30ae64ede89379b</id>
  <place_id>ChIJs-K-mhKFqkARfeJFmumnfSc</place_id>
 </result>
 <result>
  <geometry>
   <location>
    <lat>42.6619280</lat>
    <lng>23.2649880</lng>
   </location>
  </geometry>
  <reference>CmRSAAAAbASUP-60XN8q5hwNWR54z8hILBMdzKg74PsXoRY40p40WpsM_T6a5SxDOtjMBjwdVM6MI-ta6LqjWY6zSmHA1_tX9ndCYKeaAgdKh4GMV1P4_T2b5dcy0eesUoqJUXIgEhAs4T6fHUNNMaHvv_HO1gc5GhT5UFHuQxOaVDxiGox67PGejH11Dw</reference>
  <id>63e1261e7fdba87df1b8eac15ff6f6bc4cb1edff</id>
  <place_id>ChIJE-nX27aEqkARvLehixWs98c</place_id>
 </result>
 <result>
  <geometry>
   <location>
    <lat>42.6895640</lat>
    <lng>23.3428300</lng>
   </location>
  </geometry>
  <reference>CmRSAAAAlLjlkqoqtdxPMwrsXnSezqPTZbzwT4tDfroZ6S6Xxh2OR2m3I3r23nGRiDFLtHp7qsrPIeqoIdJLsjaoztSnKG8CoihBck3mT3hmID-dXp_H7Fm6D_lmR59qZ3yOphhrEhCX9HmC8wToshLgootZkNemGhTZOahi_ZBR3oDzBmu013D3ohJRWA</reference>
  <id>4b171244e62d541d5306f864839413274f2f8701</id>
  <place_id>ChIJoTTQLpmFqkARD5tjsxft0Ik</place_id>
 </result>
 <result>
  <geometry>
   <location>
    <lat>42.6884400</lat>
    <lng>23.3121800</lng>
   </location>
  </geometry>
  <reference>CmRRAAAATtx14-Q-IWELeOwYbVDRNqvLzy_8SbK_v0n8laG3Wt4b3LcQIlN8kKdmXXgqaLQMwqXYEK0Pq0CEqpnC2COojCmX1Zgxn-T0BAPNjXwdvNfK626JO15KIOKAPYCc9RC4EhANhLxKiwWNJ06lq7Vwrvc-GhRXQP1ImRFHMsocKuvhTpx8__cjEA</reference>
  <id>e53f39609cdf409a2790a17cc6523d7f7d2d5e6d</id>
  <place_id>ChIJZ-4QrxaFqkARftSG4eFqMC8</place_id>
 </result>
 <result>
  <geometry>
   <location>
    <lat>42.6442581</lat>
    <lng>23.3417246</lng>
   </location>
  </geometry>
  <reference>CmRSAAAAigC1ZKKqAi_OXe3UO_WYuMFl1_n1j4DSioz1Y73m4WRRNzUzHLgu5RmLlslqmcLgTGtcjd-T1RIzxmBYdLAHb3G05a-tA7NEY68cFfy4-lnwWXU8wuQZ4cE00yl9vLc_EhBAHYqBEnx0AiLHpBKwEi73GhRdYqxdfvntfQWSjUOdN_0nF33glQ</reference>
  <id>720a84be004331e7c56de72462b74dc537f27dc6</id>
  <place_id>ChIJ9W14FCOEqkARTcJlKaZSEfY</place_id>
 </result>
 <result>
  <geometry>
   <location>
    <lat>42.6887755</lat>
    <lng>23.3290185</lng>
   </location>
  </geometry>
  <reference>CmRSAAAAe5KJ201iBK_xDDx5sd5hROhPywsGmUYvHu5CSd6SgxJlc_g3zPIxUc0VuLwoP-1uAVMBvJzp0EHBc12PmE1lkKH8Bm00FyOQ4e0FWHG4-hvXqAC_I9GnzY12Um0oyuyqEhCXwX2-f7oXvnNZuplm0q3iGhRnoRFptqeBJr9UyWpENmz3rLwZZA</reference>
  <id>3a89b6f2379d99f4aad0d5724a94440458a40f4f</id>
  <place_id>ChIJFaJqFAuFqkAR3s19-RYXrsE</place_id>
 </result>
 <result>
  <geometry>
   <location>
    <lat>42.6634600</lat>
    <lng>23.3166900</lng>
   </location>
  </geometry>
  <reference>CmRSAAAAxMkOz-4WCxQZoynTbMNwI9J8qzge3NXtF6vX00hIT8IJociPux7PZO0NzS5TgiHvgb-YXfjXEpNqIJhZCa7piwXky9b_hYZmKaa87X6sQ5GGd_WLic-YNvSN6AKCp11lEhB5__33-sJSstEDoyKZBAfhGhTKWklon2NcoElCGoBX-9FlbBqB1w</reference>
  <id>742d117f9b1bcd5283356bf0fc7403d038dff1e5</id>
  <place_id>ChIJT0cvyFmEqkARwG7qNK0jyo8</place_id>
 </result>
 <result>
  <geometry>
   <location>
    <lat>42.6625416</lat>
    <lng>23.3400233</lng>
   </location>
  </geometry>
  <reference>CmRRAAAA7j1g4nK398-nQKqOXkpvF3IG8x0zaHOhRwjR_2b8aMZurwOe8jOId7mt6xO0s8hsKVXLS4M1iQeZwya2g4wzQZLz9lp_OXZFORO64nlqbC80fAuGG7-Pr4Rqa91EEAeeEhD6DmuoFZaZ0pKgGeGPbavlGhSD6nrOGKrNX1ZJd2iS11-wQTQDlA</reference>
  <id>eda9982b37a8a891f804f0a6060f5741e3251322</id>
  <place_id>ChIJ06HrJzaEqkARqcVg2n8Vo2s</place_id>
 </result>
 <result>
  <geometry>
   <location>
    <lat>42.6984652</lat>
    <lng>23.3308786</lng>
   </location>
  </geometry>
  <reference>CmRSAAAAri7n5CThj4LkyvNISm2l1UuuEWI6XYuhT5A86zrTkJlgrzqNuxp9iI8YScLQjKjwZhGmwxSPutm4qzDWTjFbdEcjmEe70D5hMoNuAbTD9gbUvqZryzr8m3IgyJ73ALVCEhBXA3GQDyfKnJxlSplCRxf9GhQvKxGwHI3MmkPEZo0-TRV-4oQQcQ</reference>
  <id>e2ca7d0ed98fd7d447b3b3bcc6696eb239316fe1</id>
  <place_id>ChIJc89VbXCFqkARRaL9NcjE1Ik</place_id>
 </result>
 <result>
  <geometry>
   <location>
    <lat>42.6744615</lat>
    <lng>23.3094388</lng>
   </location>
  </geometry>
  <reference>CmRRAAAAW504aBLiZVe-CNGiF1Id634YqFMqErgCuu9dUOpOREf48zi6oC_N2zfIUAglxyAUPch71xdJzKzN1_KLZHXF2oE-lnEQTrbcWkZy0zjIEOcH8EAECKRHlaDg7Ec8AI3yEhAlJfJLU3u8zOYfernw-FnQGhR7oDb-QsvTgeeQmschQHtVv-7sWQ</reference>
  <id>738989f4d4313b5ed9cf44bea8190b4933e00319</id>
  <place_id>ChIJ8Z5kQf2EqkARwlonwXxUuhQ</place_id>
 </result>
 <result>
  <geometry>
   <location>
    <lat>42.6974400</lat>
    <lng>23.3180500</lng>
   </location>
  </geometry>
  <reference>CmRRAAAAf9HSlIxWDJWE_vWi1R1AX6119J0sgiQ6wPJehQs-fjVcey3lSB_HhBIt7imYwkI4RKMvaghC2cfLFgCuqtNOJmX9TgdsDxk7zJ_AHBrS_LGINFqsTWRoP16NqfIE-TR2EhAZaIpiAG4AH_oC7RPz0RFsGhSqdWKOhTE8ZAS71PjlFLaTmzwzTw</reference>
  <id>104d56ba3ff9d962de01dcecdc96efd335aba9ba</id>
  <place_id>ChIJ4WBSZWmFqkARJZBNT1dEQmY</place_id>
 </result>
 <result>
  <geometry>
   <location>
    <lat>42.6874880</lat>
    <lng>23.3231510</lng>
   </location>
  </geometry>
  <reference>CmRRAAAA2FPyt-8t3n0BURsUm9nKfu0_stE4bYnnYz331758QdRIceUzkqqIVfz7D9lKRmc3gVkef452J-dA6bl8YW4EPi2-IsXTX9mi-q_2O5KD-zASqI6DEPrJyauIehHRGzNWEhCZNttlBKq0d12-kA2U3iO7GhTuBQ4uz-bxDjoyo4xPqyCcsbi7Yw</reference>
  <id>6d67a23c118572a2e637a3c44522a608e0681dfa</id>
  <place_id>ChIJIzO4twmFqkARvaJ6EJTYSi8</place_id>
 </result>
 <result>
  <geometry>
   <location>
    <lat>42.6942720</lat>
    <lng>23.3223008</lng>
   </location>
  </geometry>
  <reference>CmRRAAAALHiHOrzS4y8PtF_JSdHlUp1xzolvlNOOHWc_O4UO7GYW43QXZeAytqARzqfhKYjBvcTF268UvkVks5wN3E3F7XMO6-8XjVKo11qXEmrpZnMGbJBBNfUncVoEhXW0PtzHEhAcRdzgfMa_9EHgW884xyg4GhTP0WX4Wp33O0WY-D8dkaNddedjkg</reference>
  <id>31e1b61e8a869ca56f387d7f492051af6d51453d</id>
  <place_id>ChIJ5ZrGum2FqkARpMrPOUiVNRs</place_id>
 </result>
 <result>
  <geometry>
   <location>
    <lat>42.6787442</lat>
    <lng>23.2911035</lng>
   </location>
  </geometry>
  <reference>CmRSAAAAnpDKzz2s-t0A3bPaZ57B-_DnnDKuMPSX29WigPL7QmFCAi24RsHwoQLpWmGOiVn3paeX4EEFQyDEIDrX5LsriWjvMsdjQ7B4Pq_xFAgsKCFRlQvLyoR5V8QdYth8GO4hEhAu1FUsaWqUpgyyTAFNBJJiGhRS8TrPulojdjJTMoPp1Jp4pachwg</reference>
  <id>3895f8177a33a1ec43aa11df17170b3ad1e61208</id>
  <place_id>ChIJP2rbN9-EqkARRcPqF8Bk8J0</place_id>
 </result>
 <result>
  <geometry>
   <location>
    <lat>42.6538799</lat>
    <lng>23.3460575</lng>
   </location>
  </geometry>
  <reference>CmRRAAAAGjfw0_Ba2U5ZQsD13fCre5PKSzBmwMtnCqZQSakpCJW3Trucbn4dEgg9lxXxPxoDjhK-YfVtJ5u1Z0NBjZ06Tl0sA3nG9HXM08TLYqr2xW8nt4oqwPNYnxGKnKm1j1VMEhB1zuV-IVd4DIUh4HafBzMbGhQYDzHqQHRje7dRMLIAUikiW90L5g</reference>
  <id>415d38d7c748d8c98e28b0aad154dc1fa6132030</id>
  <place_id>ChIJffdBVzuEqkARKl0HNYkd9kw</place_id>
 </result>
 <result>
  <geometry>
   <location>
    <lat>42.6934470</lat>
    <lng>23.3403490</lng>
   </location>
  </geometry>
  <reference>CmRRAAAASbM833NqWn7DHOrKEc5fdWHkKPGW_sVD8sKLUv_OptQM0RefOmOcvLgVL72FQNKXEY-rFZ7NqJoiOLN9z-7dmuRQLLFHmDYVEjdazqqO5kLcv0nHY16GVxgMDrgMIWmDEhAVvxKedvDs_8evG64TTRTYGhS7qUsm_7G9aNG91h6lrKWN5op3yA</reference>
  <id>b87606f47d8a6b4cbe89db2ecf92797504daac29</id>
  <place_id>ChIJBR06vp2FqkARo5pgtLgSzXU</place_id>
 </result>
 <result>
  <geometry>
   <location>
    <lat>42.6885800</lat>
    <lng>23.3255200</lng>
   </location>
  </geometry>
  <reference>CmRSAAAA91kOQCfoDnctRLlSDo4yaM-N91ig7-0pXoUmlVisTFFpe426i1pPov6r5634GNfibimqg3JjY_30rbIVa3HBS-mRSmSpcxhYXkS-iTnEk6-uGuDdV4BdStdv03PRP6bZEhBg6tLj0WuinaLxYHhXAJv7GhQEu4QvSsc7RdRg0gZZEZrPan5xfQ</reference>
  <id>63560cca29e180a58db36864398e20cc3af8696a</id>
  <place_id>ChIJGWL5igyFqkARZuP8KsQHnI8</place_id>
 </result>
 <result>
  <geometry>
   <location>
    <lat>42.6936132</lat>
    <lng>23.3296478</lng>
   </location>
  </geometry>
  <reference>CmRSAAAAa81_VhENLOIj34Owyx1qWgDL-KOsTsu2HD0FkiN1Qa91ieH0mqqfKLiZ1GcIpI9SNG_guvshvuYyH2hDUQCRQSCdgccIfK39m_AILPaefSNAQNnq2Bb_9QC7FK4cf2-GEhACw2XId4HELjjujidkuP93GhRG7oCP3ybov8rkXNuNQYaX_ViMuA</reference>
  <id>210e0f31fc11c596c871d96df725cba5aad635fc</id>
  <place_id>ChIJt_8KwnOFqkARE22peen1PJU</place_id>
 </result>
 <result>
  <geometry>
   <location>
    <lat>42.6836251</lat>
    <lng>23.3606008</lng>
   </location>
  </geometry>
  <reference>CmRRAAAA2-tHhrhi_tovdyUgtVXdKzIiJhiAYyU0vshYf0ZlnEzavbP9u9f8GYTm3rVI6itLQFrBghW01zK14g8TbB3PqUPtKPKvkd9jzEVhwwG1ObV7OcicgXfnfvKms17TD5uhEhAsLa9Bacq6HpkHLrNV_rw9GhQlzKnDORxshbWQIZc-JWcV8rPrng</reference>
  <id>6cc419ebc32ec8946651cccb1a29b97b6c4a76d0</id>
  <place_id>ChIJRWa8muqFqkARCm87a65EJiY</place_id>
 </result>
 <result>
  <geometry>
   <location>
    <lat>42.6911000</lat>
    <lng>23.3292000</lng>
   </location>
  </geometry>
  <reference>CmRRAAAAlH-y_kUnOPD6Dnd5q_trxFHGiKO7ocFl9ic6LutUBlzlDa63OBVydiHbtizaoScAssyeCUFDGk2p2kACCLcL9W7iPXLfFrosOX4qSwC2g4M0V9MNiyVdJrgRoH6VUrfUEhApSKcwNnOe7G4DXbkhiVJKGhQQQOfscAI33f627zRES_iNMNnVZQ</reference>
  <id>a205523db99c8299a3fac0918d15602154701a9b</id>
  <place_id>ChIJLxxbYHOFqkARfJJNlOQjfSU</place_id>
 </result>
 <result>
  <geometry>
   <location>
    <lat>42.6495596</lat>
    <lng>23.3420670</lng>
   </location>
  </geometry>
  <reference>CmRRAAAAaBATWPm1mcFz_27GJv97kx3KsY_qJyRqEPnJYLu9npxbVUsjkqhcPL_gdAMjAhGwgkBYekzfNvWR_vEMebuy4g4qKB9hQR-w64bQLGYZjBdr5QONWNgDKYrvuAb9paQOEhD1KcwYcNJ-RXQ_NzMYHLWaGhT532zgYWy0b3qqTaZC-nSSaS0npw</reference>
  <id>672dea43b08216becd2886f251cc8a3969eac84a</id>
  <place_id>ChIJhS2OLRqEqkARikVPxsfmink</place_id>
 </result>
 <result>
  <geometry>
   <location>
    <lat>42.6941978</lat>
    <lng>23.3288462</lng>
   </location>
  </geometry>
  <reference>CmRSAAAAcW8Zl_SDbxiRIKBiNAEg0arxQ6Aym0W5KD4zpFBDA4Q0L-6BPOzLMHBPcKyn3qonfDBnNr_0lGj7700tJbXnppW1bD5JsnzmVdk1FQMOfmhWOhZiDTWCGM4K76IC3IcWEhAaE6ciZTb2z1FiD8XXZc3KGhQjTjZRXw3n-6Xcu_zuAzIS3wWGTQ</reference>
  <id>25bcf2f99fd003acfacd4a350b534e65d1a5e78f</id>
  <place_id>ChIJOcLO03OFqkARmOFEt4Hic6s</place_id>
 </result>
 <result>
  <geometry>
   <location>
    <lat>42.6915700</lat>
    <lng>23.3116400</lng>
   </location>
  </geometry>
  <reference>CmRRAAAA6bFsD6tEHY6wJ0_tFXW1ehGPEPbxQwDrduTpsDbtW7orMj_eokqVbMfLopBgCXTOBoSjA3KRpMTzstefDlPvaQcvqz4wT20j8PyXa9SDUkch-qI1H1YvC1HXjSBAxmcpEhC1PR9vZneBdCPkggrQgSvmGhSnIoZQPOyWFngBSHDSJfm0T1wAzA</reference>
  <id>1e9a1a70950de297e60d16e5f410e5826868367a</id>
  <place_id>ChIJzXXSABWFqkARhD3qhl9oZV0</place_id>
 </result>
 <result>
  <geometry>
   <location>
    <lat>42.6805616</lat>
    <lng>23.2873303</lng>
   </location>
  </geometry>
  <reference>CmRRAAAAHtwB1LdC30-RreQXx2SCT_7_iLCe7K0Q2byOG0TSerjneeHu8pLXEYEQOQ-ku7o3U_CEPbJgKhrmTe54sJdTUSnxs0P0_PXAPDHmPtGuVC8ueD-dvM4tWXGZ6V2VbG2cEhAVcit9oMKPQ0-FnLXIU3hUGhQF7Inzu10SO6cNnu9AwfoKEBXr2A</reference>
  <id>34dee4ce9ea61c686f76c44bb5a479198556cf51</id>
  <place_id>ChIJS1sajyeFqkARachZ2pNN7jo</place_id>
 </result>
 <result>
  <geometry>
   <location>
    <lat>42.6666791</lat>
    <lng>23.2899508</lng>
   </location>
  </geometry>
  <reference>CmRSAAAAD_LZL_9ahT6Qb2_awK3oYElCXUOMG5mPqI4eUxcTGaO0TFMrG0q_H_qJMW9aGT3m_ceu2VDb1eRHNwPq23KvKYz_6fcigAekgrEPTseOtEswrukQKRLP5y35fiDTMeENEhBHz5sUfMXT0RLVN76NV2DXGhR7yjFX0mrL7LoNns73DlHomJU4aQ</reference>
  <id>2532187f6af4a28bac9670dec35e81e9627309df</id>
  <place_id>ChIJZ8j8mOmEqkARAsJHQpNUcuY</place_id>
 </result>
 <result>
  <geometry>
   <location>
    <lat>42.6979678</lat>
    <lng>23.3300394</lng>
   </location>
  </geometry>
  <reference>CmRRAAAAsANU4M94KS5wEdm6MuGZSBZmfltSzmES6ZWiPND4ikK_bGO_p9JxBZMs0HK6BIvuzOPXhhjlL5-3ard2X65qA93_j-b0lYrVlbewSSPz2jieZof6fmxXnLmMISvjr_-nEhDXeIMncQD8uwv3xix8YBMLGhRnt3JWXwmuv6VFMRXK4BVJLHE2kQ</reference>
  <id>1500fcb7efb66eb1c09ffb64383c9b4e6ea6ce05</id>
  <place_id>ChIJkQPXFHCFqkARt76wbByCmmQ</place_id>
 </result>
 <result>
  <geometry>
   <location>
    <lat>42.6988759</lat>
    <lng>23.3256849</lng>
   </location>
  </geometry>
  <reference>CmRRAAAAOlp9ZT2QoKQyr5_V_ZEkdGK_QuNAEbuLKwBJ_7Uw9SlkV-cSH1bsZpZXAwQO_XyJirx241Wa-7qkNRm6zjzDk0GPKir8O5_EGLQamn9G6njKxHLjj6pGGpnP1OprqiCCEhDLCZE1BcoGOWLbdxbhQgl7GhS9350rbfrafNGQSwD9SnBtZsPxbQ</reference>
  <id>b54a970d384343237aad01c254e67c5ebfe9c05d</id>
  <place_id>ChIJj5ZupG-FqkARRAKN1iIhwRg</place_id>
 </result>
 <result>
  <geometry>
   <location>
    <lat>42.6948598</lat>
    <lng>23.3195348</lng>
   </location>
  </geometry>
  <reference>CmRRAAAAlcO95twF66aSNQRqcslzyLvVcuTv4GQeYadc_K9hZKhIWd-5oU9BRtiWwgBer0Jho-1hqTSTRHf3NW0qRXfnsXsv3FmYN6EOIhFFb_FkipRhwEIPfs_wdUWVjxPXSWyVEhA-v73NpVihXRyAdt-yyc3TGhRDAHZtStNfpbrZeyy6GblMhWNjjQ</reference>
  <id>11e121a21f78ac1d3bd82886fd70f06e4b7224f4</id>
  <place_id>ChIJKVStb2yFqkAR1Z7VnoXlF10</place_id>
 </result>
 <result>
  <geometry>
   <location>
    <lat>42.7010612</lat>
    <lng>23.3240237</lng>
   </location>
  </geometry>
  <reference>CmRRAAAAV73t7qEEK3XYZOMCD2LhF4_27WzXwrpYeG7GWxKJ0Xm-BA8l_6OY3obIiY17LJkeRjU41AY4-pRntdRwqcZtKBvJa1hdZrAMUlMzsoR5ce4NF-PS9zG4M0tQZtqNHOSJEhD4LRyk_Zf2sldPzBluqsUaGhRfmy78AMqvaU6hOaxDiFbtLnHWwQ</reference>
  <id>3c93fb8f7eaf3ae5f2c616d6fbabdcc2d3ae785a</id>
  <place_id>ChIJEdRI4mWFqkARPiTbdE9Ak2Y</place_id>
 </result>
 <result>
  <geometry>
   <location>
    <lat>42.6513405</lat>
    <lng>23.3781894</lng>
   </location>
  </geometry>
  <reference>CmRRAAAAdc9zig2TcmOY2PSQ2CQEnHfPwzdMZ_z00kx168P65saZ4VtJzFtI8INAU4hGVbpss5Nk-Iqn_qEHJ8UZqY_1mCSa_dtzuWAEFQqTAE0MkLKXziAY_V_estYDcngCW-LAEhDqKt73WZaRF6baUGbUyCdcGhQWrN0Y3A-aO4o9wzJAuUjqlWwihw</reference>
  <id>f1cac3a61154dd855f2ec5c9eec3771595cf7853</id>
  <place_id>ChIJSyzCY5GGqkARs3KTBC4Irlg</place_id>
 </result>
 <result>
  <geometry>
   <location>
    <lat>42.6489028</lat>
    <lng>23.3803718</lng>
   </location>
  </geometry>
  <reference>CmRRAAAASoCsZrRFPcnceC5aY2-0VA1qJj6fXSQ6c6mxJv5-2-rytMXkBcummpV0_bYtfAo5-rEvjdP0fH5tKJKsn8sr_dZBCpQ-OnUkrpo1m7sav_4UzbEgL0IgheE9Xvv-m7HBEhCVZC6jrnBlNte7ZQIOFeqbGhQLcTRh4N866AknPa-rsB9idKX2OA</reference>
  <id>3662471101e159f7f239d253d74a4b24437c398a</id>
  <place_id>ChIJgbsAzJOGqkARkP2j0nFCLg4</place_id>
 </result>
 <result>
  <geometry>
   <location>
    <lat>42.6660135</lat>
    <lng>23.3562229</lng>
   </location>
  </geometry>
  <reference>CmRSAAAAfDiIkOB2EukRoxDl52SB0kbKYpWOxY12hSDlrKs8YmZPc_i-bbaz_xWNXHwFToOQk1evxQ-z_FWXhWx6YLQRFCbhBDaVxxZmiSQwe2soSnKpgEDSmkt5lO7lMQB2mgPmEhBZ6_VSH4mG9_RIZUWIlFBbGhRRlyUAwgei_l48pJ6duArAIlxhlw</reference>
  <id>49f14ed4dd42581cb5434135cdff94889440892b</id>
  <place_id>ChIJQ0CWy1KEqkARx7sQ2yEAGKA</place_id>
 </result>
 <result>
  <geometry>
   <location>
    <lat>42.6967968</lat>
    <lng>23.3178537</lng>
   </location>
  </geometry>
  <reference>CmRSAAAA5m_MDllm2SzK6EK71wKMslqYgZGFKomxCli3KPSrq3KDnZufEECbIYfEPS2fseKUokV8UsKhVRJMRWcZ5BVxAWWoZ-aBVCdL4LNJsfgWPVf2Tw7NFuj5z68h851z9R8ZEhAtSd6TRUjDHfE-85LRxIiRGhQuOmEc4nO1svZEK_9tbJnyZrKnQg</reference>
  <id>2ea78d135befc817a715d42bb94738155e8aa758</id>
  <place_id>ChIJs8yaxG6FqkARTXe60ZvqqKA</place_id>
 </result>
 <result>
  <geometry>
   <location>
    <lat>42.6676009</lat>
    <lng>23.3284015</lng>
   </location>
  </geometry>
  <reference>CmRRAAAAzIij9n9ewOFDmyrqsCuBalveuWL2-dFyoiIw5a2MzrHpASlQ4QT_ZHd8jqWXUG2wz7FfTh5eaEoyao7ItMMDHEcEypPTbLN-lME2ly1VkYvLWZ0ClCkxHa6whfU9eID4EhAQMe1dz99ZN157XOFHfJvxGhR1Jx7BC8tdREgunhKJJYq8lDNZbw</reference>
  <id>04505dec0912818383f204dbeaf73ee8db4e85a8</id>
  <place_id>ChIJJ_fOgW-FqkAR0_XvhhnmqFM</place_id>
 </result>
 <result>
  <geometry>
   <location>
    <lat>42.6896400</lat>
    <lng>23.3247600</lng>
   </location>
  </geometry>
  <reference>CmRRAAAA60DIrT0H25E4w99wIjHTitNREhY3Eoc_EOdYjF8wqBOULySJihjge240t8L1qEeG0gm4PuP_Gz2hwkfPx_CItVHd4reu5t2qNJZoBWrwKc0FrYfC9o9dutjyh28rTouyEhDZa663lF6Xni5yAdZeJ5h3GhRiFnGtI89XBYhiJ9lsL0meO7v50g</reference>
  <id>c38f6d7829a69c3a4a26674f90df991748f0ed34</id>
  <place_id>ChIJWUvR3wyFqkARlHB-lRGlyGA</place_id>
 </result>
 <result>
  <geometry>
   <location>
    <lat>42.7169394</lat>
    <lng>23.2788062</lng>
   </location>
  </geometry>
  <reference>CmRSAAAAzBNcgfF5jO7fTomHI9YcCZF41RsRXMFm93rPcZcZdl5S6HZh85xmsnEPwvVRSiCKlPBHtwiH4-bYzjP0mOS6KyR8OkwMZTAh1djGL_O0gs_awcdT_VTL7kMJeE5okbxjEhCaebuhkCfrKlaPeJTZhCcnGhTVpb7mgKvVemQb-cwyKg0jprlahg</reference>
  <id>9257a540f39252200777fb0d0f9358b4a3854fcc</id>
  <place_id>ChIJIQIlHqGaqkAR9HlnA8y6PIA</place_id>
 </result>
 <result>
  <geometry>
   <location>
    <lat>42.6752807</lat>
    <lng>23.3183016</lng>
   </location>
  </geometry>
  <reference>CmRSAAAA3z06vK74iZlW-aijyZUlnvB3dV1PcyMsIiAa-0A4olccL03UzSEhb7gmTmket_2ks-DtucTSXvJFcRDfdgILRSgesdgWtHX4aGtInS_G2PvUMHmP_G7PngJX70GDHegQEhDNBRzgiyIEyJNjxidQ2pAQGhSjZFNmKJpV3Y-gT0xI5InDF1KUwA</reference>
  <id>324c69979bb110b3ab45a6c37d2b0c4c8c1a5b67</id>
  <place_id>ChIJiTM4ugGFqkARYnpUvSVKjb8</place_id>
 </result>
 <result>
  <geometry>
   <location>
    <lat>42.6817500</lat>
    <lng>23.3354400</lng>
   </location>
  </geometry>
  <reference>CmRRAAAAWmxitCCMcwJdM8_5l9w5eB-e5obtFPYHkvHx25tFqFHhwsO-yzUK0S5tBpMXXyVd-nE6GQ7X28BYnlKA9e8oQtd80OP-70N_tdx_ubb9Y9LwTCwar-Oj6cnBZduXszm-EhCVaTJ__PKhtmISfxAEgVObGhSIPPHSGTFBRmOd7sIuZXlHu9P6sg</reference>
  <id>84c0e746ce60ece1ad4f099453e1b35b84b0d66c</id>
  <place_id>ChIJXx7jgaaFqkAR8LPFUMKJeiI</place_id>
 </result>
 <result>
  <geometry>
   <location>
    <lat>42.6705684</lat>
    <lng>23.2951333</lng>
   </location>
  </geometry>
  <reference>CmRRAAAA8YuCZzRqk8ANPGQ22u20lERGEvjwLV1HiMsxRRS7sMs3uof22FXmp61Mm1DC1SxiG6niSrAh6mVmpz8nebCXyBBIIoU9NfxH6-WC3Mi3uLZMaO9RZfiOauCHxw0kVXnrEhAplHud7okZR_3O3FQpHRtlGhSwYdSY_kSbq8btIerjLn0HpTuX-g</reference>
  <id>1d8498be4baf7293b8e7a7a8b0fd727201bc2fdc</id>
  <place_id>ChIJU3-gWeaEqkARx9R0lTKMrEQ</place_id>
 </result>
 <result>
  <geometry>
   <location>
    <lat>42.6664157</lat>
    <lng>23.2962496</lng>
   </location>
  </geometry>
  <reference>CmRSAAAAiJhaopXX1Z-WVAquoG4U-0XYVmUFavDOjKAIpQqcEK8MaDq2rfkY5c7D2WG4f_62Xs0Xzx2x3xFkHGK1wdhVRKeT5KOPCfw0QC22-XrVpL9ssBJI1YBd2rYJb6eoVtAZEhApl03fKb0qCLCgohrB20NkGhSDKMCIfogmKJ2mJVjwslR38HzxkQ</reference>
  <id>827cf019504d6e6277807cdb1326e8b553f32db1</id>
  <place_id>ChIJg6Jl4-6EqkARH5l4IOgq3qQ</place_id>
 </result>
 <result>
  <geometry>
   <location>
    <lat>42.7091331</lat>
    <lng>23.2870661</lng>
   </location>
  </geometry>
  <reference>CmRSAAAArLzshVa02FAQ4mBAZHoI86ExcCyanQvHv5LVce607J1mimf34sNsfK30RG21SLCswS4cbalXeoa2fm5mTKkOd-2uUzue1WjcQY-yUi7K22i22o_KcjBGLL9_tfD5NKD6EhCQxCiyLPRzpsHghXZeXODqGhRjBpL6tS9GycaDVCNTCjWF8BTShQ</reference>
  <id>3dbde71e73b4406cab9307bf1a183d66e4e1f303</id>
  <place_id>ChIJse-XCK6aqkARVWn5_XbSUsg</place_id>
 </result>
 <result>
  <geometry>
   <location>
    <lat>42.6705387</lat>
    <lng>23.3286993</lng>
   </location>
  </geometry>
  <reference>CmRSAAAANrGuJubesqyEKBuglsYPuNKqB8-GTMunV2cP0HNEntcrQ9zZNrn_Deusdt7Gw65Zd6JDMHEihSgccTAU6RO3hyZ6vkR90r-omW45wNYbZXenh61uYlPaSOONIadgoQfeEhCrhcHUbpVPmE5Kkoj6q8SnGhQkh9j9m-2DoWnNAyZSOLer-AdfSw</reference>
  <id>906ebdf8c6224707784776145398eb8b6b228e2f</id>
  <place_id>ChIJV0zvI1OEqkARyxCbmZb6gM4</place_id>
 </result>
 <result>
  <geometry>
   <location>
    <lat>42.6873842</lat>
    <lng>23.3177343</lng>
   </location>
  </geometry>
  <reference>CmRSAAAA4LURy2AEkOzxDDybNyAiKw7uF-grVPgbahtNgRDCm-1GJEwXf3l2kBGJv1M1LVDz_DXdK-XUznEqzaPC4wO2fKuizINHz3mkVEI4xek_JuQx3ekyYU_eActvMPDp2HPvEhDkoNKeiy_httyzzr2xzpWRGhRB6KNSxOh9UklomnieSio7f-KxGg</reference>
  <id>6411ff1d26d44a66275f909486966c87dc47b9b9</id>
  <place_id>ChIJaV_S9RGFqkARQhcqfaBvSYM</place_id>
 </result>
 <result>
  <geometry>
   <location>
    <lat>42.6832177</lat>
    <lng>23.3019849</lng>
   </location>
  </geometry>
  <reference>CmRSAAAAtfFKUq50HN_ECELAC-stQMuqggSJI4QDbGtV5g8exxQoK3X1o9cREterh6zcljLZUTrQ2Ljg-3Y2Fv1xDAAv4botyr7ddToZQLUlKGOtHxKuTEJUuh3TYKCirLGRKdQHEhCZ8zUNZ71kDz9QQGYHv72rGhQBt2TvSboY-ooNv81mtfzpnRrO9Q</reference>
  <id>f7a1c95b18ec210f1f7599f741eae8eef8111c88</id>
  <place_id>ChIJ77g4kRiFqkARoQ9O3x8mROA</place_id>
 </result>
 <result>
  <geometry>
   <location>
    <lat>42.6919954</lat>
    <lng>23.3220790</lng>
   </location>
  </geometry>
  <reference>CmRSAAAAijzyGPlkdJzCSN4w_aEe_CSRsPE-dV_UyD87C6xjUwzNglH-CVfqHRY-USbKje5pbLegyRDnWpAcwifa_O5nV7wxdrg7Ro-EAVUBctYPqlt8B3oDKrAV94sJOgddNJ26EhAshxBNZWEmeU3fLkBuhbFZGhSHi_XqThEYVf1r-fwLsrLtESmClQ</reference>
  <id>022c97b6035b1164be8820c0935fcfecf9258bb3</id>
  <place_id>ChIJge61Wm2FqkARw5wKu04Fve4</place_id>
 </result>
 <result>
  <geometry>
   <location>
    <lat>42.6541307</lat>
    <lng>23.3725604</lng>
   </location>
  </geometry>
  <reference>CmRSAAAAqwdlHNC8mUSc8qQkqgKTqHH2XYzMF4V_RGVvVATB0FoQWuNiOsKqGTO7ZiCSIRgaqID7sWFrrKSaxMomhY9jsWzcGmalloxI6aXK96x0w6_EnRxFyMfN-MR_ULtiEHYlEhCf2DPu5dGKGcUQUZO38OPqGhQB1PdsHe38I1JKq5R-n-VAy-oYrg</reference>
  <id>97ce7ddee79697e1a1d8fb575afa30f17c76baab</id>
  <place_id>ChIJk3z-v4WGqkARyUp0yZ3qG5A</place_id>
 </result>
 <result>
  <geometry>
   <location>
    <lat>42.7027689</lat>
    <lng>23.3003725</lng>
   </location>
  </geometry>
  <reference>CmRRAAAAkyvSU1H26HPa42e9Qvnb3dI5hW_LcJ3tGNhzRYvnXDgz2feFL6in8dqVTX7cqYDkuLvc_M1wVyXVzwoN0Qif__A8sLWQlQHUHbRTrujuxHd_Vpp4GD0bnHljGMcaRmmgEhAuZesFCRfZI90WbZGSThJIGhRStUTSVJCnN9Mmmc_zs56OOhg4zA</reference>
  <id>7e2c7445f7292e97b43722704ea0a24bd260e96a</id>
  <place_id>ChIJhzOZ_06FqkARiLBh_JaQTWY</place_id>
 </result>
 <result>
  <geometry>
   <location>
    <lat>42.7078740</lat>
    <lng>23.2990400</lng>
   </location>
  </geometry>
  <reference>CmRSAAAAyQ9mNg5OgBbV6WREMMEZF1X7HKmODjiA9FuAI3x29v8vIE6-p-x3AAz2CQtY6L6rT5iSArCZBrjU_gTCL-hqXgMtB_5vmo5yxB3B8Z8j-Ia_3CqdMQe1rH7giidVge7WEhCEO-CahccnehNPKv5eefoKGhSD4QAbv6BGzu4eAZaz5_SXWPDzwQ</reference>
  <id>68632bbf2ad78366ca8ae07aedaff14d842767f6</id>
  <place_id>ChIJl_iKTVKFqkARl_2D6EGBbPI</place_id>
 </result>
 <result>
  <geometry>
   <location>
    <lat>42.6617752</lat>
    <lng>23.3792778</lng>
   </location>
  </geometry>
  <reference>CmRSAAAA3uB-b8u5oSNK0t1zn9qwV-UCcbLDeszKeozSovLC6XU-GhZNfexd1irLUY74_AMBJmfkCkhF0QzkvCJ2BmZMvoOl4Msp6lCcNOVlqw9fIE5A80Njy7tmOiHlVHInpxaaEhCcvslbtb6_wOA6WNrSZkcsGhT1jeetL97XllylIZ44wrK0CMAeTg</reference>
  <id>1f18d432d24ab8c7bd55b28a6b62508377094c14</id>
  <place_id>ChIJo2dcEn2GqkARD6C1_YATxNI</place_id>
 </result>
 <result>
  <geometry>
   <location>
    <lat>42.6843000</lat>
    <lng>23.3273500</lng>
   </location>
  </geometry>
  <reference>CmRRAAAAlvCmqfRhJO20IEUwjcPTrtNyozKe6SzJRs88LB50FEg1NGvaMVvYHCjLjvzQ2ofyqmAo1if7l-dsOee9ylWejh_ZPLGMQmBttCygiFkqW3BtvNir109NZdUxsTNMK-k1EhBHmC7fc_CsdN4UgnA8Hv29GhTdeJcnCZ6jk4u08Fghe-bzC6RvXw</reference>
  <id>5648b1236540c43be124f73edb95dad3b1b7845a</id>
  <place_id>ChIJh-c7CgmFqkARRmdg4OA1XnY</place_id>
 </result>
 <result>
  <geometry>
   <location>
    <lat>42.6950499</lat>
    <lng>23.3300719</lng>
   </location>
  </geometry>
  <reference>CmRSAAAASt4dkOw3Gc6o4sVETNmKza6P5vI6taIOvi2ppj5K_aSpg2oY6pt41if33PO_G4GAqeqe7B12UAoWy6imiMW2bNqztaBf6GcXwEB06UWmvjye3tL3HoiEb2oQ1K6UE9pBEhBG6hhDUAi_H3f3jVATokMnGhQq0fiJzZPKQSnc4aDNsrNuoweuAw</reference>
  <id>2af78d157aaf034e2a6e7f117d951c7220abfaec</id>
  <place_id>ChIJe1H_c3GFqkARlaBr0EMWcMI</place_id>
 </result>
 <result>
  <geometry>
   <location>
    <lat>42.6707861</lat>
    <lng>23.3216788</lng>
   </location>
  </geometry>
  <reference>CmRRAAAAFXo9YHGvcsgupnMf2bMDBw2NcsP8O8gcXulkND3DIegei-4zdvwA56MCrhoZLSU29_JgmpDBeRZ7IfTIyajnhziYrBwyy91KrAh6qCSwaFSdlUXd0Wru4sEHQ_eJ0PUFEhDr-PyHGYwZE9M-Ys2dpgW-GhQ_6LfOECQGo7kr71rwCDIGWsbDfg</reference>
  <id>76d327934e95c78cb388c582e1a255526ae0d989</id>
  <place_id>ChIJQ_N4AVWEqkARTZmfbetztRk</place_id>
 </result>
 <result>
  <geometry>
   <location>
    <lat>42.6550765</lat>
    <lng>23.3094099</lng>
   </location>
  </geometry>
  <reference>CmRSAAAAkJHXLU-MZC81PfvkupxeOAzgIpRktI7otF6y5Pc5gWCfHzdd1At1SEmaJpBwlTRJx-7-BAjMFcUlVdUjAFPricDjv3ypignT1tNiFMFeaFP18adpvoL1NoGGif8JPK8MEhCbwJqMhtIlVGHFm2i7O1ObGhRDerJdX_PEv0tTURYwRu1MSKs9Tg</reference>
  <id>31731f33b6517f750c0f8a2ae4a533faa38a3c78</id>
  <place_id>ChIJ3TrS5GCEqkARrsVZ4fxQ-9c</place_id>
 </result>
 <result>
  <geometry>
   <location>
    <lat>42.6605690</lat>
    <lng>23.3822909</lng>
   </location>
  </geometry>
  <reference>CmRRAAAAzhaTWKwF8D3KSNPIlQscZn1HSEWs6dNpXI88CvtaH5SpWp7wA5zwQdSbSQSmLFHotSOTeSuHjD3pAc4623DKp56aILtoT_a28BEmQjXDBwvXZEl7a6315M3WDSRc7ZMpEhCgtwFHZP5fBQOEYm8hXq1_GhQdr_JaYGK7OvCLgMvWg1fYuc1yPw</reference>
  <id>79296ae4005647b340a8070af14d2b607f995504</id>
  <place_id>ChIJCWPcRnyGqkAR6uHwHQL8V10</place_id>
 </result>
 <result>
  <geometry>
   <location>
    <lat>42.6928220</lat>
    <lng>23.3278900</lng>
   </location>
  </geometry>
  <reference>CmRSAAAAszMQ_6zyFRfG66XrT9Z4RFbAGObVt52Eb5wKrQxPp7JFztizhPBoXuwlc2jFTtasQp2o-fPcqTdoIjKhrFUimbG4Ewu8PeDlnkD3_h_C3h4T7J_wbmJJoWjIpFj8CKyaEhCpoBhjiSsaDHup6LAcTfpmGhQhKhftNj70bfgwKrNvGH1wGUm66g</reference>
  <id>690c21cb58b4fe681975186d9e1f6ce5d132bcfb</id>
  <place_id>ChIJ9Z1Vr3OFqkARkrqAOi1Vy6I</place_id>
 </result>
 <result>
  <geometry>
   <location>
    <lat>42.6604853</lat>
    <lng>23.3824317</lng>
   </location>
  </geometry>
  <reference>CmRSAAAAuhiOHSb35rTCa3u_1E6YEt88LH2KB4OSAXZitLpqTikswhHfAHAX6mPlgRyNqSNW8DqTzDPvVRud0IFAfeXPfEx814SxYlPtyeWc6LF9AkBbkYdqEiQ33nd4kmk8HL4nEhA8suiPjrh1-mbIij_EF1G2GhRGhlM8YMM-n5Nqlb_jp3CRrZntPA</reference>
  <id>2c5c88913c9c963062852eca3456b81c9236102a</id>
  <place_id>ChIJCWPcRnyGqkARjQc1ApCVpbc</place_id>
 </result>
 <result>
  <geometry>
   <location>
    <lat>42.6423870</lat>
    <lng>23.3398530</lng>
   </location>
  </geometry>
  <reference>CmRSAAAAuHOdZJWDrdJePzTBM2xTmJ92b3MBgfEtRf4Uamx3KtPKPK6HnJ09vbWAUjA5ctf4ap2_piR-P-DB0OKBzMnF30XHaqFhEJf0-ZGbFkNGGT9L2DNS2REwQCdwq86iRUq0EhC4QJ9QRJVIPkecEqcejrD2GhS0VYVJd3vyOkU4VntpwbPIB6YpKA</reference>
  <id>a647d9041e946bdd0fb7477f29c7e8afa2f5a217</id>
  <place_id>ChIJZSwj5xqEqkAR2vf6GbpjP8U</place_id>
 </result>
 <result>
  <geometry>
   <location>
    <lat>42.6731502</lat>
    <lng>23.3108452</lng>
   </location>
  </geometry>
  <reference>CmRRAAAA7QGFywjB1L6YYFksc0lX8OsbblZscAthGXfJPOCm0lZiiUbI0-PbOMdcalZIClWfDbPpqXAeLHdh4MNCz6YtE2bf_fFylpMfexQjiMfzhWB19N8XWFOhwFR2tq-lTbRcEhCvO7Zlw4F2oixbGybx6Ft4GhRLf5x_dlGaNMgawBr-lHXzG35yQQ</reference>
  <id>6a068938094697a99f61bcfe32c524c36b0317d3</id>
  <place_id>ChIJvz5Srv2EqkARBYKEdC8SKnY</place_id>
 </result>
 <result>
  <geometry>
   <location>
    <lat>42.6708545</lat>
    <lng>23.4043872</lng>
   </location>
  </geometry>
  <reference>CmRSAAAAIpndZyctPMMnlaCgBWWX_cg6CJRm1pRGP8o4eo6eQ6lDOPyItYUtMvv3Rs61RV_iqIxi4EysdOwnjNA8_Cm5RcOk_WGfEaxwjQ5u7kZ4ArwH8R3iWQKz_h0GYgbxzP4oEhBtRswnkAQsOEWAN794L6gLGhQAezfiZzhOfh2KU7zS829RvOM7eg</reference>
  <id>b26b6abb9ea453d9205d6d372bc6f228aa05470f</id>
  <place_id>ChIJO9ca4eGEqkARO_b1CqCscuI</place_id>
 </result>
 <result>
  <geometry>
   <location>
    <lat>42.6480879</lat>
    <lng>23.3791799</lng>
   </location>
  </geometry>
  <reference>CmRSAAAAF_HPc_v_hY2pgvHR6CT6js4CtbevHbzalR17YHP_ifOxeu9yIMtaWy5ZA7DyzN2Hgmxd1HtQElegdJRlQ03t0bZoBbVaPCSnmA2HHA8Mm8PGxqnaU5OgyaLQhbm8Rkf5EhBRYB0sqHkGUFVL8j2ml6yBGhQjqV86lGwj-hLPaR3rJEbsNfzpog</reference>
  <id>ad566b56336eaaed4540bbc50d60a6c6f5de49ba</id>
  <place_id>ChIJaa0sbpSGqkARGSVV21REzIg</place_id>
 </result>
 <result>
  <geometry>
   <location>
    <lat>42.6751140</lat>
    <lng>23.3528060</lng>
   </location>
  </geometry>
  <reference>CmRSAAAAVU4cUQkRUlhTmKMngV_EqisMOvnHOMD9o-YOwt15Z31f67nV9EGi8-SVMOXUJUgvBkkWN0olSn23NrytuZ9vp4e5-pZHaFNv49A7eoCo1OhJJYTar0a78Rmk6N7XUnOeEhAJugkpPoB0EAADYxgC5V8kGhRZMLfBRQjlHoLog26H_ZQSM73UHQ</reference>
  <id>0acd883e5f3bad42a8962697edda46d2def09559</id>
  <place_id>ChIJ5WwL4MmFqkARiR_6UpB6Ecg</place_id>
 </result>
 <result>
  <geometry>
   <location>
    <lat>42.6790300</lat>
    <lng>23.3840900</lng>
   </location>
  </geometry>
  <reference>CmRRAAAApXZEDDBxCmR8o6qC33c1DeQ-kGC3p1UiPpZVZqdWer5PodgALVH25B5xL-p6k2oOXRRthrZdNY__4631Hselua1nnyfxKu16afcsFMykrUhpxorSHSgPCg-9ICBClzQoEhARGpRBf8G-mAprrUugiBKBGhRMaFML_hyA7-xokmOx6z0D9FXlEA</reference>
  <id>1542f9ff35e501282cb765b99f54fdf44325199b</id>
  <place_id>ChIJj5v8_wqGqkARZ2SKFhOhaS8</place_id>
 </result>
 <result>
  <geometry>
   <location>
    <lat>42.6758204</lat>
    <lng>23.3090878</lng>
   </location>
  </geometry>
  <reference>CmRRAAAAfWmHVYs4f_AzlEcuGaGUSWaRQ8DNQdywPdWCAuidwSLlH9m6TxlHz3kpFB2tD5zN2LQtB9k0ammatvu577oaYeyumlbhq3GsX_HMkacZUuxhTutB6YMe2epLaIzzmGL2EhCQ705vj6JtKD5eDlEknTxGGhShckzD3YlOI7eBM5DZ4jLM9o2RFg</reference>
  <id>28c7cebe0d39edcbafa79aa7c21be63ac06bd016</id>
  <place_id>ChIJOdrBrAKFqkAR-c-qeoC2Zx0</place_id>
 </result>
 <result>
  <geometry>
   <location>
    <lat>42.6430300</lat>
    <lng>23.3381210</lng>
   </location>
  </geometry>
  <reference>CmRSAAAAX7m9P6yyeJnu0Qe3fky8S2nUXmxI9nzQRuGQq25l2v6m7iY2xOwkGDQHtZlXOAURZwZCl5nx4TpUIn6tCUAA9ISMYv1xd-L_2ejdVESUYDoptVn73hG2cJEEmWrIfKpBEhBihOgxsWyKoLS6txwoOXpKGhT6MA1es_XqecsCd5dQAFaMbI83Vw</reference>
  <id>447417b6806728f756847d1463b6b7e12a634f95</id>
  <place_id>ChIJc4xJvBqEqkAReg8RvgTmRps</place_id>
 </result>
 <result>
  <geometry>
   <location>
    <lat>42.6796299</lat>
    <lng>23.3287960</lng>
   </location>
  </geometry>
  <reference>CmRRAAAAPaiVKZTxNYNqhfiIq7Tv_lY_wDHUSOaA9icHq6HpGso3eDpEDL7AgxOJyy0Z3lPdARyXZP9C6EaP55_QZFjHuuHdmB_Bw0vJy0L0yi2KwYwgjvaNHmGPnuOn3e7_U8FKEhBHueKb5SHdYZJJtV8z7K2WGhQLb8nOT3aJ2hUW_qWdqRCtkaRpcQ</reference>
  <id>e605d7c1d1791be3ff50235134f344c5fcb26cfb</id>
  <place_id>ChIJC-j4a6iFqkARluiNBxzn6E8</place_id>
 </result>
 <result>
  <geometry>
   <location>
    <lat>42.6524638</lat>
    <lng>23.3420016</lng>
   </location>
  </geometry>
  <reference>CmRSAAAAqxKySHRH3B7DiugpwaxPcFmgLK-5szJ6YmzjNG4rb8ytHM8SAoV1JoHcy5EAFpvl4Aot0hfhyBcZQtlBWB6I2dgL90yLpg-h6Ali6FjFoLfn9vIPO8Ltyz5VDndGV2mZEhAsANDnljBOAv3h1lYBscXpGhTOms5zEwGaZZWlnB7vU5_b1eBWtw</reference>
  <id>a87cbc95a76bd9e6ffcf9a7758d6b94bd653b997</id>
  <place_id>ChIJ4VeNWTyEqkARad0_zA2cls0</place_id>
 </result>
 <result>
  <geometry>
   <location>
    <lat>42.6940400</lat>
    <lng>23.3043100</lng>
   </location>
  </geometry>
  <reference>CmRRAAAAjrvLeMGwolMb1tlfipam0eVOjMB8kqBQepshr0xIoqjw5D5AX6m30wUGv2eGkUTlodtfEnv0luHDRkkvKPMySZ8HP-R3mVsDWT0DhCJRPMRw_d33jLPvDBU_g8QjXyaOEhC3IFHud4SliYmr2N-QfS4lGhQcoR_ff2pr-hlhfoyL7PCXiAbT4w</reference>
  <id>e1e992b3a09f5be18868e7ef7622b3a5cd9c3147</id>
  <place_id>ChIJ33YlSD-FqkARnKp_drwU1ho</place_id>
 </result>
 <result>
  <geometry>
   <location>
    <lat>42.6922450</lat>
    <lng>23.3149500</lng>
   </location>
  </geometry>
  <reference>CmRRAAAAoyKDXVHYH7jYaGV8yXHcX1fuYnIwbLYi-VAH89lxxXMvjwEuNgSCzS_wKEj8oL7FvQnz89PwLiwQPkrYg3y7pYM3NqRyQjsnUecGw_FvTHQj208s6kEUprEyGSjN3kpMEhBO2dtolnjsM0Mb6AABUuE7GhQ_Lr_NJWGUnBhAHqIVDk28WRvI6Q</reference>
  <id>7f70bc4119ca9068e233833ab3044d728de30c35</id>
  <place_id>ChIJrxxdtxSFqkARSJ3jMacI0k8</place_id>
 </result>
 <result>
  <geometry>
   <location>
    <lat>42.6985566</lat>
    <lng>23.3081228</lng>
   </location>
  </geometry>
  <reference>CmRRAAAAeuB64w0XvYd2w_QsywctuCYVCsL2mFfPQd3VLGjl2J0ia3V6pr_F65sLtkBxciEKRRGizQjAtKOn3yT_iPsqPymiVqHxMvaFJUTjkLZxQpXEraj4ny5hpP54pp5QavxlEhACEQw1cCyYEyhqiTawbqWAGhS5M5kIea6wWakpTSGow7EfjVWMVA</reference>
  <id>15f824a95160b32d301d02cd7c28c8e8248c95ea</id>
  <place_id>ChIJ7wBrZ0GFqkAR41PZIsoTpW4</place_id>
 </result>
 <result>
  <geometry>
   <location>
    <lat>42.6984273</lat>
    <lng>23.3230386</lng>
   </location>
  </geometry>
  <reference>CmRRAAAApjxokiGqMQFjwQL66IcE3AbKvokWH5scqtKB4DPJp4YInbgm3cWb9l6SkBEOJmyojxBKIsmWunMyCqpXsHmuRdXI0JZzRVv-u0TamCcnvBn2oDQkKZr1flYMLRfb2epmEhCCaZWverQum0S4Rx6B1_t-GhSBCp6jTjeqYVQVKBGACGOogldexQ</reference>
  <id>c660e36e2f587ac17c5c64f7205baa84b55a9933</id>
  <place_id>ChIJSxNjOm-FqkAR4kyzpp87JQk</place_id>
 </result>
 <result>
  <geometry>
   <location>
    <lat>42.6481600</lat>
    <lng>23.3562800</lng>
   </location>
  </geometry>
  <reference>CmRSAAAA4CwdD8M5t-Q17_6Ybvk6aGbbqT3JKqgHXkVUCvJqchfzdq-WcVHmnFhtEM5Iz-lqHTYrst2GecYPmoApOJ91OPlNuEZ1E0_KPxiL2QGjiFS3-v1ULTiW0McNeMSgpoJTEhAnok7uavCD2_g35pWsMSBVGhTvHy33jUNujVges44LLw7m0BGniA</reference>
  <id>79111ef16eec3f02923750e928e2ccd45d59be7b</id>
  <place_id>ChIJr0NB35-GqkAR2-JEB9t55OU</place_id>
 </result>
 <result>
  <geometry>
   <location>
    <lat>42.7168115</lat>
    <lng>23.2610433</lng>
   </location>
  </geometry>
  <reference>CmRRAAAA31XCivWGiw9xsEGyxDLVcVRu0RdFdjLO15EwUPO-yy1ahFBsVVF-116Xhpqt_gfZwCzaMsLwsWdTJDxlTvvSRZv-l0sCZnSBxzk_OdHcHW-RjuT3iZ2zHfMiwE_qRIOfEhBpdYTYWmFyMbDbPUxw3OvFGhR_6jdWUOfktUwGcYLYUlhBpShY5w</reference>
  <id>3f30955bb476f0c9c9717fa631b89e161b94f56a</id>
  <place_id>ChIJJTax33eQqkARN5BkzA5k2zU</place_id>
 </result>
 <result>
  <geometry>
   <location>
    <lat>42.6928174</lat>
    <lng>23.3212056</lng>
   </location>
  </geometry>
  <reference>CmRSAAAAgpZ4esCJEVeKcE3kzct6ZJY8-33TeUyobD-yQmrWU8_s6f2mXx_L9YuXSUhT5V0wqQPtM1gfBmOdlqelYDRCkXQQ-WwZSHg2A2Z2Ne9VoiWCtzC8ssbYSrarLGb3WH9gEhDtYNFGo3r5FnjAijHlv1hWGhQPvUAbMwWNhOwNAxm8Y8ODcgRFrg</reference>
  <id>7ef1e608c467e8adf6d35d2dd3ab0b9674c51bd2</id>
  <place_id>ChIJuZJCF22FqkARLF2JQraGo84</place_id>
 </result>
 <result>
  <geometry>
   <location>
    <lat>42.6902300</lat>
    <lng>23.3394400</lng>
   </location>
  </geometry>
  <reference>CmRSAAAAq7-zdGwt3YKW3ENaOrYg31fgGwxtlZ35l07OygcDrqz6-rsa7UrpZQSC7ivsw3oIA6Yr9nuKDuvdfxOeaYJrENZ6Zd0c6_X-ON5zDdn1R9y9TVG7V5zvDyvV1DDRm6LIEhCqBvItyE0dNVrJwswUGZxzGhR1As2IVZG0dJmOLuttkaYgtocJVw</reference>
  <id>823bc11952384cfd6cc99ab3d48020ecfd9d447f</id>
  <place_id>ChIJHcAu_56FqkAR9ZVYoH6CN7I</place_id>
 </result>
 <result>
  <geometry>
   <location>
    <lat>42.6230104</lat>
    <lng>23.4052637</lng>
   </location>
  </geometry>
  <reference>CmRRAAAA0JjiwshFe72t_pFnjarTqO8OLlYeveOooqL41X-PAWb8LdAjEQ9B4EE31HfDeqerFe8wQ1IQxqCJUZi_9jQUi0M1jrlDoiA-y4PUNtcNAPefR5QO1fQsJZ7v5-saXW2fEhDXqFjpRco24ypCOeXS-8EgGhSMI_4OGX7LXdI0-M37T3VbQMpUEg</reference>
  <id>7ed529e3d6757e56401da557424eda45abad4423</id>
  <place_id>ChIJXaqF6LyGqkAR590lpA1_6gs</place_id>
 </result>
 <result>
  <geometry>
   <location>
    <lat>42.6784000</lat>
    <lng>23.3231900</lng>
   </location>
  </geometry>
  <reference>CmRSAAAAH1jdEKREenZGzHuySJ_ZIvCmjlpSDchdlGHFn-uWWhaXXbmrJt68OnDQWfFO-wP89VSmcpVENUmmRoBUleY_jUKlj1blbg9pPgXu_WQJ9mvSIQ6HlmGyE2OYwJzcUBOHEhAdPkOEBjX0e8Y-Xxf6S4K_GhQSNYgigtd36NNWDUGUFhvEAvmrkQ</reference>
  <id>c9c32f770a5fdf9877a0fced9eaa906624d8a858</id>
  <place_id>ChIJk39uFgeFqkARwpwXSenwWN8</place_id>
 </result>
 <result>
  <geometry>
   <location>
    <lat>42.7023800</lat>
    <lng>23.3220482</lng>
   </location>
  </geometry>
  <reference>CmRSAAAAZdOS99GuKeQkdR3WCroy_3kEfg5O_xTDCcadaJlJ7x5Qy5EMd80uHX1GW1Nn9llNbPpdvVq5zfxjXFUyUUZjKsKjrYkuCflVpLjuzpSZbURXxkgx3gJeyjyJRCArBppoEhCRNDXg1uoJ64iYs1N0CVSuGhT70pqJq-AFoaJJzMKbjyJl71bcXA</reference>
  <id>ed2bd48d8e3354081612892f79dcac6c5e94565e</id>
  <place_id>ChIJKXgLTmaFqkARUnzVVjtC_M4</place_id>
 </result>
 <result>
  <geometry>
   <location>
    <lat>42.6719894</lat>
    <lng>23.3517707</lng>
   </location>
  </geometry>
  <reference>CmRSAAAAXq329LbdPbPttWGe91hPKGfA9YvF-uvb8LzYM42Qb2njRCZ130WD93p_u1jHUChm9yixBvSKbF8DhiVnOBi9flFXIJ3YmqKon-E2Del4ieAknW0SYiV2ef6gatSunO3OEhBHdPjd1n02Ncrc-kEXUeVSGhRNbCb-irk3tcX3s8Puo3juQIohqg</reference>
  <id>7e24bb44f4d5f39e93e3224fe82ebc6897030b9e</id>
  <place_id>ChIJddBTZrWFqkARUJFJ0kkPmf0</place_id>
 </result>
 <result>
  <geometry>
   <location>
    <lat>42.7019104</lat>
    <lng>23.3194082</lng>
   </location>
  </geometry>
  <reference>CmRRAAAAC02SEu0M79vv5Ksxc7UX1Ahw0iUpPaSJFGjQtYK16RMtGhec8QkAVWXm9VDK9X6a2yFR3FqpKUd4-JjPID0DWu5_6CP5xfANvl7h3Fe0_OR-BF9UetQJr3AVAtqrm3G8EhAdGxMUd4bidDBCETBIN8IjGhTIu-sVoJlFyiMuj-TSBZ2wdikXAA</reference>
  <id>5e70e65ef84cab1431a1cbaea3cee50750d82a07</id>
  <place_id>ChIJFxZX2it8qkARD-IXcRRM_3A</place_id>
 </result>
 <result>
  <geometry>
   <location>
    <lat>42.6932665</lat>
    <lng>23.3213427</lng>
   </location>
  </geometry>
  <reference>CmRSAAAAKUGD8mTrRtkgYIEbKF0Tjrd6phY5tAL8ADFWNn7AoxPTeU70snTVDdTTO85my9PN1V65smERZ6tt60SOYZy_49FpPGC08zItujW61ct31e4f18cKXNS3hJzpY-vM61jXEhA6rDltL0M-8iJ0lc7XEtPHGhTBemKSpY_zwH2yskmbf8R1jYHO3Q</reference>
  <id>36460bef207a9cff8a4e660998cf4e94542a0173</id>
  <place_id>ChIJaegbBG2FqkAR2tiwcWORHIw</place_id>
 </result>
 <result>
  <geometry>
   <location>
    <lat>42.6429294</lat>
    <lng>23.3687846</lng>
   </location>
  </geometry>
  <reference>CmRRAAAAbbT9PwFuqv-Eh907CGst-1uYF1QtkrXweOInUamloOECcW_hkTIKdyXJAaPcMYkZNll3rKOav6OijvP8ToQkm1zNZCj4_9FGIro-88NEvTxt9Ov55xKHnkfYX4T_IIMfEhAGMwLj04kY0fvLnIUuxM26GhQNq_E2ep3NfThK4_Z9t2_vSSwLhA</reference>
  <id>4336c108c029e3becf52ffc7445610efabdf94d0</id>
  <place_id>ChIJp053Cr2GqkARS_FNx8cCSiE</place_id>
 </result>
 <result>
  <geometry>
   <location>
    <lat>42.6922900</lat>
    <lng>23.3254400</lng>
   </location>
  </geometry>
  <reference>CmRRAAAAt37_IO3T-fMLozjD8tnOWF33CiBz8EtLdKAwj6-QTtfwjrW878uCohZkyV6zPo-T8FHdPGe2ANyUi9IN2pV7150h8D8l8YoUVTMXwus41meQj1K5MYzShNddtPxyxokCEhDnk5jiJVXDgMkIYPHjj9CPGhRI6XGvTPBO-wjSJ7kxQ24y13UQTA</reference>
  <id>3a97d512fd1adde959f2d2af74f7185b24d95af7</id>
  <place_id>ChIJR7OK7XKFqkAREFE3g-bmE3U</place_id>
 </result>
 <result>
  <geometry>
   <location>
    <lat>42.7023590</lat>
    <lng>23.3160040</lng>
   </location>
  </geometry>
  <reference>CmRRAAAAlVszkGeEjIOWv0iHub4heQohpwBp_JgmXr42jEK_jx5n8A_yYeAXYlcvQVgrLMFamNsda52TpVIbeBNe5Ax9sFpGMar9mMakrUMFWgV2iGqYrMrcPZN96demyWikpDp9EhAk3iDERw4W6WNK1S2oCB9CGhS2O8annp6m9c0cMwDF7cxnSKl__g</reference>
  <id>1a49e6a10c192090101503a0e170d5b3c856f4c0</id>
  <place_id>ChIJQ_N4AVWEqkARwLJGPy5ta1c</place_id>
 </result>
 <result>
  <geometry>
   <location>
    <lat>42.6885689</lat>
    <lng>23.3255047</lng>
   </location>
  </geometry>
  <reference>CmRRAAAAE8uEIWceuOMrT_ZRape1pvjnlTcr79DoFhaczXoUugN6t5Pj_nmuFlSBuPp1BpiyN5oPdb0qemjqr5QKaKe1w15ZtcpjErB-uZdEZIgOd1YV2yiqSO-pC3eMHPLnUK_OEhC1E0-UuVu1MemO9aMOge8eGhTSIFryfDK_EwQoKNtqN3mgrA0Sxw</reference>
  <id>85ee2bcfb0a41d283f20a5d98c4375b3a106e3c5</id>
  <place_id>ChIJJ0TOys6FqkARQkAf6ud-e2E</place_id>
 </result>
 <result>
  <geometry>
   <location>
    <lat>42.6948006</lat>
    <lng>23.3107771</lng>
   </location>
  </geometry>
  <reference>CmRSAAAAbH9VN0sEFkLM8PsVD9idS_lzDxXevfhtIZfuIlHbUkcXzp1vOBg4lwKLGyMZxEcVCd7bTJ9dQLU4IAtMzsTeI8al8ej8u4bcNbaRcu8s7e5d-ZqShUDjAYcWLDEE2TtBEhCigTxYZFVggGzRfL3sMOOBGhTgc33Zjf900ArplXRfkxjtBN3VRw</reference>
  <id>8808d614ae7f6b0d36874eb208e9620b74fff57b</id>
  <place_id>ChIJowIgGUCFqkARpwvgGLcb5Z8</place_id>
 </result>
 <result>
  <geometry>
   <location>
    <lat>42.6911586</lat>
    <lng>23.3231653</lng>
   </location>
  </geometry>
  <reference>CmRSAAAAS4b5mwEQh7Zla7gl7VTt8P1z1mGsGidepSxh2GLC1fvFTelZ1_a42eGkRiErCbIsK9CsPfau6OKxTZ4_IvhXAlD2ybNT5RPet2h2ZC3pF-ytZZ5wC7s__6If3FLkDdUGEhBTXuIwSkrvkVhJ1jotvenBGhTrRTiUhxL4JiuFENMnkd4kc1XLPA</reference>
  <id>de27476c744db5cd22b2d2a76555fcfe5fb05bd2</id>
  <place_id>ChIJPZhvrXKFqkARTzk21hrj1N0</place_id>
 </result>
 <result>
  <geometry>
   <location>
    <lat>42.6853314</lat>
    <lng>23.3189534</lng>
   </location>
  </geometry>
  <reference>CmRSAAAALIR2O2mWX2DCH0OrcZZKUEj-XQ8cZN62z_5s2R03_ButdYcvnRHqOjaTWDwEuSc1zU0R5sPIBYkJiQ1Az2run_y06F9vdlcez9LNXyHhcHoTVCng0iPLMwWunFoFtcM6EhCcaNkdQqLA8h28Yt5VWbv-GhR56Aty_GbL4c7_Z-Xrm2k7il03Ww</reference>
  <id>9321ca0f14c6fee8b178beaa6b3ddee9f86943eb</id>
  <place_id>ChIJr81ONg6FqkAROOxs-i1w0pM</place_id>
 </result>
 <result>
  <geometry>
   <location>
    <lat>42.6970658</lat>
    <lng>23.3453245</lng>
   </location>
  </geometry>
  <reference>CmRRAAAA8TYZ3oPQ6l3_tlI_VZPgOgLvMzLgAUv1mKo9euEi2rrAtdY2Q-1KXTYgkHIk4NRl07JEC9quMHLgLVEMdGofa1cSWQij0S8ahQHQrZ0npAcuNIgBGKhrTrGAT_rieHtBEhCZM8QsvxVuH8O6SX1z5U_GGhThumFixSygXdursJ2Qd8dcJdKy8Q</reference>
  <id>3ea1a496ca59729a928c6727da2b30bee2e18cf5</id>
  <place_id>ChIJp1sCJoOFqkARCCR2JPNbzH0</place_id>
 </result>
 <result>
  <geometry>
   <location>
    <lat>42.6961600</lat>
    <lng>23.3243100</lng>
   </location>
  </geometry>
  <reference>CmRSAAAACd3hJajNIxHjXQ4imb5cHNrLgMvdsMFZ5N2c77tDqvMpHf6tF62XplrxsA4JFQ5nkQEwtfW3DlbDRmLNmGEiHkw13g8-6_xeEFN5-K4McvooQq2oql6k3MWvd4Ym6rxjEhDhm6tG50hKRaNBfs1CZVKUGhSQs1zvuzRAyZWyhk_Py0C9to0anA</reference>
  <id>782b7c8bc78d56e7d5bed645d4d23ca8390d6ec7</id>
  <place_id>ChIJe6knZW6FqkAR44msswXmYfY</place_id>
 </result>
 <result>
  <geometry>
   <location>
    <lat>42.6964589</lat>
    <lng>23.3200170</lng>
   </location>
  </geometry>
  <reference>CmRRAAAAvcGTRaW7dySq9MXCXGy5OqkNV_kjQNzRkiwNuYBdSoxU6sU9FMbkVSJvhOWcJ8x_JyIRkr7xfu05Z0d-6jx7oUguBTlpWsI-pJYX_o6e3881t_-lj5XjMESFdyBIuwCmEhCfwxANjBpNqROR9Ko3WqUjGhTuDoTOQF3EXiC5eD0EukvGV7_74Q</reference>
  <id>0bf317e8131cc554930c80ce4082c4f76b746d2b</id>
  <place_id>ChIJ_-YzAGyFqkARaSfiM9fBPXA</place_id>
 </result>
 <result>
  <geometry>
   <location>
    <lat>42.6984830</lat>
    <lng>23.3287060</lng>
   </location>
  </geometry>
  <reference>CmRRAAAAfffN4ML-aOg-SF9_WbRkOfZQ9xJ7vpOluFjNMoEl_gdEQQuqVz7TfdvIGgeuVVwu272HFFVVdLQo6uTJUguY7YWtThbimF0sa-d_vazOLIqNvQsCmLDndOH0WU51rvKlEhC8Wy2xlHJqynCFncl_2XWQGhTyWjlZ8ZAVaOcYwQxpSfAq6qbxPg</reference>
  <id>9567609d41de4e85fd83f80a9445b7fd32e5912c</id>
  <place_id>ChIJ-UmJHXCFqkARjgrQeZbkT0A</place_id>
 </result>
 <result>
  <geometry>
   <location>
    <lat>42.6773862</lat>
    <lng>23.2901983</lng>
   </location>
  </geometry>
  <reference>CmRSAAAAecAo45UHYmIJlgRhgrTsYevkRYdx8_SATgIXCPEv8QROatr6SvLqeaGA8ntxmTl0IuDLZKkGwBcxPJvtdpdOri_QfKPjqJY7o7Q9qqqvPMZ75RU1FHHLpnTk1YKOzYDAEhAv6G15o3rwI0-vy7yO8nLQGhTyntxH743-HehKqmOEqDcyzlYmiA</reference>
  <id>d0c112288107e2ee4350a5bf797f1494c0c716d4</id>
  <place_id>ChIJuVxrJt-EqkARrkeduax714E</place_id>
 </result>
 <result>
  <geometry>
   <location>
    <lat>42.6982150</lat>
    <lng>23.3279911</lng>
   </location>
  </geometry>
  <reference>CmRRAAAA-FFSp7Rxp5se145_oSorH4_wqHsYU7WL8l9vCx4G_yFi6areh3OdB4BzkXkG194WrFgPXFPcIdIDN6jj6N8-oG4RVStDbW0PlkShD1CwPs1emZtOGa8GRSVQjpnb1GuREhCop-F3PYRO3G9BBDD_v6OCGhROAGjmoISEn5ADDFbNN45Lyz6Bqg</reference>
  <id>119d7053dab32f3c596ef0c610897755a2795ac5</id>
  <place_id>ChIJZ8w852-FqkARsbI-duz1RW0</place_id>
 </result>
 <result>
  <geometry>
   <location>
    <lat>42.6469858</lat>
    <lng>23.2669351</lng>
   </location>
  </geometry>
  <reference>CmRRAAAA5jB-T1nGoPT6WcdHKfIHsaGOTiKbPkX54tLTLwBIxgyehNPZb_BbaaHbqHtfhSyXtwKJounam1kHNCw8quRkx5i_aadzDDRT8X9wTbVQ2rzY53Q_wqozLYe6mkNURlFMEhDG1CUuLxN_EwVz5XqUAIFYGhQw3Ys4n05wFHyGGg0KBtfW48Qzmg</reference>
  <id>5582e49a77aac50d36106797c7aa2eb217f42764</id>
  <place_id>ChIJpX34ml-DqkAR2oLIF8rgIjc</place_id>
 </result>
 <result>
  <geometry>
   <location>
    <lat>42.6040981</lat>
    <lng>23.0304497</lng>
   </location>
  </geometry>
  <reference>CmRRAAAAiV4eqzj24JHn7BdzDGmXsT6BKQLVEEwFfk2dE19VldWkNdiP-gAsdiGg7F4Te8hkYcCJEF6470aGJ7maLoxUk9rbI7k6W1pZXwUqoDvrEqOu7LHGuMOLAJppUUida7rREhBFv8axE-J04LNS9ie13koCGhTBDFfhSUf3AfIaLRz12yTcY5SMUA</reference>
  <id>32f716dd8e0b3076b77f19e245e32891285ae04d</id>
  <place_id>ChIJOVlZB-rKqhQRgG4Bfl-6uHM</place_id>
 </result>
 <result>
  <geometry>
   <location>
    <lat>42.6499610</lat>
    <lng>23.3420819</lng>
   </location>
  </geometry>
  <reference>CmRRAAAAnWLV9CaUIOS_3NbwnHHIj-umhw0hW0wzqS7MjC3eVzyZ4ljsiGwwM58LITgGlsXtfq9lQNVmD9cQ2Kzboq81qqLUWUK_nlizo-bdUAsL632f6D5bQtfmAw22lBAZbFY4EhDtprS2yFSiP6I_nEPAgTE7GhSjw6eZdpVSJVTOXiVCRfwRA-5oqA</reference>
  <id>9a3cfb856ef9e6e6e463660e4e71b00891e38267</id>
  <place_id>ChIJMWwhiReEqkARC6CC5UL-sUE</place_id>
 </result>
 <result>
  <geometry>
   <location>
    <lat>42.7030060</lat>
    <lng>23.2990211</lng>
   </location>
  </geometry>
  <reference>CmRRAAAAq89A4BpGLBGnSbNQKONKAJjvETGpq7wpkDB1hK-aL3k_lIgG1GuYg0GC9-SZkiZ2SsjQjvle6nnl4MpyJthHo3hYccxXEmuP1r_btymMLwhA6fupyn-G1yQi2-yI907_EhAQSCpjMpfR8iWBE4p75bTfGhR-KlprjErx3nFvhD0YjatmDPt2NA</reference>
  <id>053e83fee579d84ac66e9a80dd78985cdebaf327</id>
  <place_id>ChIJyVJ3806FqkARS_1A90gvCys</place_id>
 </result>
 <result>
  <geometry>
   <location>
    <lat>42.6831920</lat>
    <lng>23.3273540</lng>
   </location>
  </geometry>
  <reference>CmRSAAAANIyh_JnYT7MxQuJFRhjMqJPAFQV1OKju-_Oo-Sw9lvzR6DYNIEZhb0KmSM1kzfp7kV7U7goODOMYlhmiQhsQqRKZAzWZWJfpVhOQpzaE6GXvwwXpqrraABx2QQo0O60gEhBa9t41X8XZ6UkETf85JY8yGhS5nFfGYJYQam9Bw-rvyGRfY4fWLg</reference>
  <id>dbca77533b542b439c3481b221e40933bea23809</id>
  <place_id>ChIJ19ukTAiFqkARk6LDGdRn9fw</place_id>
 </result>
 <result>
  <geometry>
   <location>
    <lat>42.6724100</lat>
    <lng>23.3018100</lng>
   </location>
  </geometry>
  <reference>CmRSAAAATYblQJ4ET_oD7Uvw9YZ19r7Iz_9tscBvkOv8G9DQ14JIio3lzacOz6fRaHKzfDVlyf01ZN9cmQWth4TF5rvjen6phr_JTtIOe1lJLvexYaainGbrhb20LrFmEhN44Bw_EhBElaq8iKMTq4BHkiTjtLe-GhTnxOYfdImHtpT41vsdqFoKekNpmA</reference>
  <id>226dee5f9480ade47dcbfc1aaafd3c7a9f72cc34</id>
  <place_id>ChIJH5Xfd-SEqkARMc7fheeKHro</place_id>
 </result>
 <result>
  <geometry>
   <location>
    <lat>42.6934400</lat>
    <lng>23.3216300</lng>
   </location>
  </geometry>
  <reference>CmRRAAAAGj-fGWuZJsC3Tcv1HYtt1Z40I9hHDjMlIx0yAQ69zHbkaxOZAMS1bVdcpAfhHBgQDLdlDn1lq0m0O5ppepJPYh-24bvTAlaw4sAl1nCOaTjD3ghcsUcmOuU8dUN0a1hnEhDccyzSDwlrRDDDwA803rA-GhTv0PBoqxgzAnmV2ATYFVRiMcDJzg</reference>
  <id>41cfdb68ad0f6077110555a333961f6a3c31e33a</id>
  <place_id>ChIJofPzBW2FqkARhVpq0-ytnE0</place_id>
 </result>
 <result>
  <geometry>
   <location>
    <lat>42.6933017</lat>
    <lng>23.3370545</lng>
   </location>
  </geometry>
  <reference>CmRSAAAAF0l6oTE9kSCPLMwQ8fuNm84yCzoeD6csglAIbfqGkRwxizNeeHlocDrKS7z6Z4TLrFVCK52sAVp_agyX5c553peeRraBN5rng-V_ybiVAhq6AFm_5uj2S6gB3OKPSPffEhDts36R97WnBE-ARxV0uehrGhSUNfqR7G2mVd5zd_UsVU5X5qfOGA</reference>
  <id>6aa6298fff39672aaf2850cc5dc93d1ee4d85b00</id>
  <place_id>ChIJXce1bnGFqkARvZOMMf-74v8</place_id>
 </result>
 <result>
  <geometry>
   <location>
    <lat>42.6495166</lat>
    <lng>23.3441852</lng>
   </location>
  </geometry>
  <reference>CmRSAAAArybyNsiaGu_eeJdlDLa70teRCPfTRtr4XDW6E6fKyBED1LcJum-xQCPsfh4axA_-QMP3eFYemifJgn8Pr9pj05rGEK6AepRr_rDW7uZAHM0WsXzYDKj31IwGbMHKRgBAEhCp3_HotX2PXwA-QLKpgdZ4GhQRML3ZCiFpfcPTF4im7IhmUo18tQ</reference>
  <id>26eb0489b8fb864ae0c1d0a2fb3ca982aca7a1d3</id>
  <place_id>ChIJxQqOJBiEqkARYUUf9_fklLI</place_id>
 </result>
 <result>
  <geometry>
   <location>
    <lat>42.6853000</lat>
    <lng>23.3254500</lng>
   </location>
  </geometry>
  <reference>CmRRAAAAjRDIDAbl6CALO-cooQMLSjBfLBuLi3ANBSMe8M9JIutAVlHk-ubNP7fhBffk4Q4YS5Va30eFIxpTG-fzW09ST6qWimYGcuw14auYaohJHFdgK81Pbc7gR_MoTUtjMfs6EhArLlE4D0A-zaJ_quN_tcvxGhRSF_E-4hJJa_2C_bFEF1CKIYzgag</reference>
  <id>f9a26e238523886d2ba4414ebdf235328639df44</id>
  <place_id>ChIJ4zUcRQmFqkARy98H3puRFk4</place_id>
 </result>
 <result>
  <geometry>
   <location>
    <lat>42.6851900</lat>
    <lng>23.3189900</lng>
   </location>
  </geometry>
  <reference>CmRRAAAAtYp0X8vQg9bOiue2fCwv51u_VKhJfJnVuaBI39yIC7jadhlLJtUnvD3LUnA6JtV1_2S-Bw2hEkmyJM2Vr3XWhJ4l6cvb4pSOefOHA3-m-dzLnb_X23JlMlNlp6N4GTghEhA-SBOajbkak4_-DflpIxJbGhS6USE7EiwrqER2xjJNfw7BXAwMmw</reference>
  <id>f39caffe204c1fb99222dc3a257e8c5deebc3f14</id>
  <place_id>ChIJdWu5Nw6FqkAR_rs1RE6dtzU</place_id>
 </result>
 <result>
  <geometry>
   <location>
    <lat>42.6522281</lat>
    <lng>23.3450559</lng>
   </location>
  </geometry>
  <reference>CmRSAAAAQ1GkPonzk-gxU_xY9EiDlm9LcLMiRAragty643u6QAZnjb0klZPJriKM19Qico_AYqZEGP1fohc640CqdG7JQiduB5fngiLck1ZzRM6JTVxExgG5PWsDllygPNR7mDzlEhD7h-Bylw0daR9W5GhHDtdXGhQhhRPFfgKzdSBUpr7lFQCbDqJqlQ</reference>
  <id>89682d808ecce92723cd22473d1e6cfdb5a58ca0</id>
  <place_id>ChIJzfHGwDyEqkARWl72XD7B2Z0</place_id>
 </result>
 <result>
  <geometry>
   <location>
    <lat>42.7010853</lat>
    <lng>23.3247699</lng>
   </location>
  </geometry>
  <reference>CmRSAAAAnPNIg2rJAqbNG1gFFfF5KDsnep9lzpCyYq8xW-ODt9HqNtFhryvbrcAQpmqOobGe0RVbjgTtFUQa3mCC5JM7Qm2w7NVJvaQu6FMZHNLL5US821AfGwHadq68tEYDyTPMEhDvN6l-bonwBNR_r7I9RYWFGhSeGVXYAxi6fjC6GJayAR6AbCGkTQ</reference>
  <id>0c399f8358ae42f2422c6bb9c2d732a3fe6db35d</id>
  <place_id>ChIJxY_U52WFqkARBQLoOTE35Os</place_id>
 </result>
 <result>
  <geometry>
   <location>
    <lat>42.6473035</lat>
    <lng>23.3756659</lng>
   </location>
  </geometry>
  <reference>CmRSAAAAWWlepX61hz7fm97WkhPtaD-fWyihxSdKaJEQwkPMkDKK7-WWuvPlVMGBESqsEvyD6XVOFiBdAhz7REyp4YzBzCKXtMHyshwOTqg4C-DumW9Myos_PRAhwVcXvSTjmNCkEhDxHvIS5zNiDje16ke5ATX7GhSD-vpR7gHw57kXeY8JOBLRayA6gA</reference>
  <id>d80f455ff28d63fc61e9397e49bd33c44858a19c</id>
  <place_id>ChIJLyPwk5OGqkARrJaRCBTGrtc</place_id>
 </result>
 <result>
  <geometry>
   <location>
    <lat>42.6996500</lat>
    <lng>23.3081700</lng>
   </location>
  </geometry>
  <reference>CmRRAAAA8nNPStTTFa2bpXHV2yZS69Sgqa9nI_TOfovlB9a3yJkbjCA_LS8V8G_PJqvx_dTJ8B36IL3MLdImaaKsqA02xfu9i9INm7kpR3P2RYjQ8jrCd_Uc5aJcpkkf69FBkNAmEhCKwoR5X_VmPnxUn0b_F8L6GhQdvz8zu7p_fGpqbxhNQYyDsYKcGg</reference>
  <id>4f93be1b2846aa9b55c0b3f6a9b8f2be69f088e9</id>
  <place_id>ChIJaYgnD0SFqkARJ28R7DRneAQ</place_id>
 </result>
 <result>
  <geometry>
   <location>
    <lat>42.7793655</lat>
    <lng>23.1444473</lng>
   </location>
  </geometry>
  <reference>CmRSAAAA_fUZQWHneIsi55Nm0UxWZGKatwSm40OHFVyOpUqXIByoBUZTHy9ZovHxbh9yVVbwVxQvYBoEZ5ViDB0H51qPzqKMY2Qjkn29iZ0rvl6Q_O0V7oUiz3AWhJSVCDE36m4qEhDJWbdPlGkd_SOegiymEfFBGhS2Y6s-nA82LVAz_vBVjRvL4n1Bug</reference>
  <id>020d8578fff02c17c8ac858ae3b5098de3dabb08</id>
  <place_id>ChIJYfodPc6XqkARLpI6If3Kn5k</place_id>
 </result>
 <result>
  <geometry>
   <location>
    <lat>42.6868509</lat>
    <lng>23.2992728</lng>
   </location>
  </geometry>
  <reference>CmRRAAAAJzX36EMpaNhcZWxK03A7Oa08-x_hJmXUZTKXHoPPbFevoK_S-lCm5jxllfXWtJGD50lsrccFPV32jGmp1LFXi3_k1DHC8yPPK8QEgJ1dX63ze9DfreZyjtGnjZmHs2KUEhAXqjVQQ-vf6FbTskqwBXSxGhTcF2PXJSHRrHnKFg-9XZw2kXN46Q</reference>
  <id>d7a1243ed2bebc903de66ffdc9f606f5e3f3411d</id>
  <place_id>ChIJXce1bnGFqkARxeqw3l03axY</place_id>
 </result>
 <result>
  <geometry>
   <location>
    <lat>42.7065414</lat>
    <lng>23.3226178</lng>
   </location>
  </geometry>
  <reference>CmRRAAAAoGnhatT6JxTr-dsxBOBmxzS7wu75VRzguVgrgU2Oa0YJl3KPACr1H4hI_FquaoNI-Dw4DEySBcIAE6HGAzCfVgEi-zHCnMukDHhf-hjdBwWFS4WQUqHdhh4k-oKpRUOpEhAaJalHBkgKvoSyW60AGQigGhTls64JZlx2jKU2FNXnpd2w1O8opA</reference>
  <id>00f1af39541d74941a7e5601ecb668a16e5b13de</id>
  <place_id>ChIJQzk3l2CFqkARVI2bPNheyXk</place_id>
 </result>
 <result>
  <geometry>
   <location>
    <lat>42.7035800</lat>
    <lng>23.3879900</lng>
   </location>
  </geometry>
  <reference>CmRRAAAAM7FbnX8S4sKh45U3pPimiMU9JQ4HRDiPkoe6QkaY8C_bAWXnxtSmxrUSTUGYUaqU-Sm8rZ_kIjDscFeiWvxTrhGyeyeyvJks9yVcbt5FE3S1KAHVfZmZji_A9nz2d4UOEhAtCyxyamsy-C8VWV6XBntOGhSgmUm8JYrmdgcQYyRlxR8gdZsv4A</reference>
  <id>d05886fec86c7e867e0cd628ed0e2bf195c9ec44</id>
  <place_id>ChIJf8ve-VqPqkARVsVwU7WO-EE</place_id>
 </result>
 <result>
  <geometry>
   <location>
    <lat>42.6967780</lat>
    <lng>23.3074151</lng>
   </location>
  </geometry>
  <reference>CmRSAAAApH1vlddoaXCbGEp_NMPNHgvWI3U8Bvofz6B7Dz11amQY9H_QNfP6hDnyc6jW6ibBzIAQi_U5UXxA6QFEjXUDGdRtTdQZU4mIZ9ARg5D0yfwLfWw-sfxDrnHYZvrtUG04EhDPFXvScyn__r23xI9yDA3jGhR84zQF2SfpIi5MXbBhQk6Qf3UP1Q</reference>
  <id>5fdd1a002bacadec7759a3c15e085740b6b03531</id>
  <place_id>ChIJz2_4JEGFqkAR4FreHBtNbfM</place_id>
 </result>
 <result>
  <geometry>
   <location>
    <lat>42.6952330</lat>
    <lng>23.3237182</lng>
   </location>
  </geometry>
  <reference>CmRRAAAAxzmsTpr-sT0z1k8phv8ntJ-TUHeRzXbU9gQAFDJpw7qwOAVOl1BxTzXzUjYg-l_GlrKkKni1CKlJnagvksHQgi4b-sMaTnruKIEenci0SNwLdzb8LaE2R8y8E3Oy8i3lEhBjfJJQ3GL6HvNzuaARlLWXGhQRAFOcAhkNZ_qDdvBZEVd6-05JDw</reference>
  <id>021d0e687b41c7aa289c5060cbe60b6d3980e16c</id>
  <place_id>ChIJeUb72G2FqkARlK4cBO-TdyM</place_id>
 </result>
 <result>
  <geometry>
   <location>
    <lat>42.6711700</lat>
    <lng>23.2897100</lng>
   </location>
  </geometry>
  <reference>CmRSAAAABy15bpuw9p6JG6_-ydJrd8gJRl5voWZW6NiS5w5JBo25uqHo4XoweZHmUUDQdpowjGe8X-ZmdJ7c7daBd5i_mOA4kyVllB0LjZnOQBHP6yI65zFgDNo1_AL_yk8hCqq-EhCTToi1Ti3HD7sEFtqB0j-wGhR4QO3pV8WmP0enC7eghYQmxe7FuQ</reference>
  <id>1d6a7fa23fd479adecc7c96dd3f478fd09dbf983</id>
  <place_id>ChIJUcJrRN2EqkARdC9w2rcz8tQ</place_id>
 </result>
 <result>
  <geometry>
   <location>
    <lat>42.6725684</lat>
    <lng>23.3206175</lng>
   </location>
  </geometry>
  <reference>CmRRAAAAAIreAzSuWJSjDqwxbExQT_5FxAQmi-MycCbwjla46IEW7i7Ly_zA9mTR2OiE06tbEu58nOpvH2xZ3HL3CPh8My0PGhO_ePZAHn4XLnwoPZBvnvLwtQ1ELor2QweX1G0dEhCcyq0wBiNRbpNwai1diADbGhQ12Mq3CatwE2tvYYAfunRMBO1HUQ</reference>
  <id>97705a007048e12c39b5a2c3911292dca72640de</id>
  <place_id>ChIJIzxTVlWEqkARIi-eN__3yHU</place_id>
 </result>
 <result>
  <geometry>
   <location>
    <lat>42.6670249</lat>
    <lng>23.3902976</lng>
   </location>
  </geometry>
  <reference>CmRSAAAAsLIi4iSEL0oJZf8D7cYDJ0nF-etnjGpBm-3KUuseBZHrauvOXu7s9WaN8qBrO2LsV9lwgUoRzXBm0j6PCMoSqPJ3yyqHoKoVF-D4pJ-tUG1kSwLInxnz23Y0IGdFO6nbEhASjQD9kXOySvda9GJQwdXqGhTQE2dwQ6ZU573s-iSHWy9xFS3myQ</reference>
  <id>8e031ce2da4f581d0020fd46a671b8a3c7867ec0</id>
  <place_id>ChIJ2w_N2XmQqkAR05w_tYJX-Lg</place_id>
 </result>
</PlaceSearchResponse>

